[{"name":"Le Vestiaire","gw_id":"002722F32EB7","deployment_status":"DEPLOYED","civic_number":"6634","street_name":"Saint-Hubert","city":"Montr\u00e9al","province":"Quebec","country":"Canada","postal_code":"","latitude":"45.537205","longitude":"-73.605546","isOnline":true,"public_phone_number":"","mass_transit_info":"Metro Beaubien, Autobus 18"},{"name":"Lachine - Port de Plaisance","gw_id":"02272237A8C7","deployment_status":"DEPLOYED","civic_number":"1800","street_name":"chemin des Iroquois","city":"Lachine","province":"QC","country":"Canada","postal_code":"H8S 4A6","latitude":"45.430551","longitude":"-73.669429","isOnline":true,"public_phone_number":"514 634-0646","mass_transit_info":"Bus 110\r\ndepuis Montreal : Station Lionel Groux puis bus 496 ou 491 ; ou train direction Candiac arret LaSalle"},{"name":"Juliette et Chocolat - Guy","gw_id":"24A43C4D8405","deployment_status":"DEPLOYED","civic_number":"1626","street_name":"Sainte Catherine ouest","city":"Montr\u00e9al","province":"Qu\u00e9bec","country":"Canada","postal_code":"H3H 1L7","latitude":"45.493900","longitude":"-73.578949","isOnline":true,"public_phone_number":"514 508 4800","mass_transit_info":"m\u00e9tro Guy-Concordia"},{"name":"Ville de Mascouche - Parc du Grand Coteau","gw_id":"000DB9403575","deployment_status":"DEPLOYED","civic_number":"2510","street_name":"Boulevard Mascouche","city":"Mascouche","province":"QC","country":"CANADA","postal_code":"J7K 0H5","latitude":"45.743768","longitude":"-73.621693","isOnline":true,"public_phone_number":"4504744133","mass_transit_info":"45.743768, -73.621693"},{"name":"De Farine et d'Eau Fraiche","gw_id":"002722F33133","deployment_status":"DEPLOYED","civic_number":"1701","street_name":"Amherst","city":"Montreal","province":"Quebec","country":"Canada","postal_code":"H2L 3L4","latitude":"45.519132","longitude":"-73.560429","isOnline":true,"public_phone_number":"514-522-2777","mass_transit_info":"Metro Beaudry ou Berri"},{"name":"Terrebonne - Parc Marcel de la Sablonni\u00e8re","gw_id":"000DB93F7991","deployment_status":"DEPLOYED","civic_number":"1070","street_name":"Marcel de la sablonni\u00e8re","city":"Terrebonne","province":"QC","country":"CANADA","postal_code":"J6Y 1G5","latitude":"45.685770","longitude":"-73.725578","isOnline":true,"public_phone_number":"","mass_transit_info":""},{"name":"Studio Bizz - Mont-Royal","gw_id":"001EE57AA7E4","deployment_status":"DEPLOYED","civic_number":"551","street_name":"avenue Mont-Royal Est","city":"Montr\u00e9al","province":"Qu\u00e9bec","country":"Canada","postal_code":"H2J 1W6","latitude":"45.525172","longitude":"-73.581978","isOnline":false,"public_phone_number":"(514) 526-2455","mass_transit_info":"M\u00e9tro Mont-Royal"},{"name":"Comite Social Centre-Sud","gw_id":"00259C4AC3A1","deployment_status":"DEPLOYED","civic_number":"1710","street_name":"Beaudry","city":"Montreal","province":"Quebec","country":"Canada","postal_code":"H2L 3E7","latitude":"45.520154","longitude":"-73.559031","isOnline":true,"public_phone_number":"514-596-7092","mass_transit_info":"Beaudry metro"},{"name":"Arrondissement Montreal Nord - Parc Oscar","gw_id":"000DB9414F81","deployment_status":"DEPLOYED","civic_number":"10660","street_name":"saint-michel","city":"Montr\u00e9al","province":"QC","country":"CANADA","postal_code":"h1h5h6","latitude":"45.582328","longitude":"-73.648247","isOnline":true,"public_phone_number":"514 433 7270","mass_transit_info":"Bus 67, 357, 467, 43, 25-25B"},{"name":"St-Laurent - Biblioth\u00e8que du Bois\u00e9","gw_id":"000DB93874D5","deployment_status":"DEPLOYED","civic_number":"2727","street_name":"Thimens","city":"Saint-Laurent","province":"Qu\u00e9bec","country":"Canada","postal_code":"H2Y 1C6","latitude":"45.504106","longitude":"-73.705344","isOnline":true,"public_phone_number":"514 855-6130","mass_transit_info":"bus 171"},{"name":"Centre P\u00e8re-Marquette","gw_id":"0227222110F5","deployment_status":"DEPLOYED","civic_number":"1600","street_name":"rue de Drucourt","city":"Montreal","province":"QC","country":"CANADA","postal_code":"H2G 1N6","latitude":"45.541202","longitude":"-73.595631","isOnline":true,"public_phone_number":"(514) 872-8705","mass_transit_info":"Metro Beaubien, Autobus 18 vers l'est, ou par l'autobus 45 sur Papineau"},{"name":"Union Francaise - Travailleurs du CHUM","gw_id":"6872516485E3","deployment_status":"DEPLOYED","civic_number":"429","street_name":"Viger Est","city":"Montr\u00e9al","province":"QC","country":"Canada","postal_code":"H2L 2N9","latitude":"45.512286","longitude":"-73.555508","isOnline":true,"public_phone_number":"514 433 7270","mass_transit_info":""},{"name":"Cinema Du Parc","gw_id":"000DB93CBAC5","deployment_status":"DEPLOYED","civic_number":"3575","street_name":"Avenue du Parc","city":"Montr\u00e9al","province":"QC","country":"Canada","postal_code":"H2X 2H8","latitude":"45.510392","longitude":"-73.575058","isOnline":true,"public_phone_number":"(514) 281-1900","mass_transit_info":"bus 80"},{"name":"Maison de la culture Frontenac","gw_id":"0227221D756C","deployment_status":"DEPLOYED","civic_number":"2550","street_name":"rue Ontario Est","city":"Montr\u00e9al","province":"QC","country":"","postal_code":"H2K 1W7","latitude":"45.533656","longitude":"-73.552250","isOnline":true,"public_phone_number":"514 872-7882","mass_transit_info":"Metro Frontenac"},{"name":"Arrondissement Montreal Nord - Parc Carignan","gw_id":"000DB943A109","deployment_status":"DEPLOYED","civic_number":"11481","street_name":"Avenue P M Favier","city":"Montr\u00e9al","province":"QC","country":"Canada","postal_code":"H1G 3X9","latitude":"45.609885","longitude":"-73.616048","isOnline":true,"public_phone_number":"514 433 7270","mass_transit_info":""},{"name":"Caisse Desjardins Pr\u00e9fontaine-Hochelaga","gw_id":"0027224A0AF9","deployment_status":"DEPLOYED","civic_number":"3211","street_name":"rachel est","city":"montreal","province":"QC","country":"canada","postal_code":"h1w 1a3","latitude":"45.545758","longitude":"-73.560397","isOnline":true,"public_phone_number":"","mass_transit_info":"Bus 467, 97"},{"name":"Coalition des Ami(e)s du Parc Jarry","gw_id":"00156DFCBD9D","deployment_status":"DEPLOYED","civic_number":"","street_name":"Coin Jarry Ouest \/ St-Laurent","city":"Montr\u00e9al","province":"Qu\u00e9bec","country":"Canada","postal_code":"","latitude":"45.536310","longitude":"-73.624045","isOnline":true,"public_phone_number":"","mass_transit_info":"M\u00e9tro Jarry"},{"name":"Lachine - March\u00e9 Public","gw_id":"000DB9397821","deployment_status":"DEPLOYED","civic_number":"1865","street_name":"Notre-Dame","city":"Lachine","province":"Qu\u00e9bec","country":"Canada","postal_code":"H8S 2G2","latitude":"45.446621","longitude":"-73.639161","isOnline":true,"public_phone_number":"","mass_transit_info":"bus 195,496,356"},{"name":"March\u00e9 Atwater","gw_id":"00272222CA58","deployment_status":"DEPLOYED","civic_number":"138","street_name":"avenue Atwater","city":"Montreal","province":"QC","country":"Canada","postal_code":"H4C 2H6","latitude":"45.479821","longitude":"-73.577470","isOnline":true,"public_phone_number":"514-937-7754","mass_transit_info":"metro Lionel-Groux"},{"name":"Village, SDC (Antenne Exterieure)","gw_id":"DC9FDB58AEA9","deployment_status":"DEPLOYED","civic_number":"1324","street_name":"rue Ste-Catherine Est","city":"Montr\u00e9al","province":"QC","country":"CANADA","postal_code":"H2L 2H5","latitude":"45.519589","longitude":"-73.554962","isOnline":true,"public_phone_number":"(514) 529-1168","mass_transit_info":"M\u00e9tro Beaudry"},{"name":"Espace pour la vie - Jardin botanique - Jardin de Chine","gw_id":"02272237A8C4","deployment_status":"DEPLOYED","civic_number":"4101","street_name":"Sherbrooke Est","city":"Montreal","province":"QC","country":"Canada","postal_code":" H1X 2B2","latitude":"45.559099","longitude":"-73.558736","isOnline":true,"public_phone_number":"(514) 872-1400","mass_transit_info":"Metro Pie IX"},{"name":"CHUM - Centre de Recherches du CHUM","gw_id":"000DB93417DD","deployment_status":"DEPLOYED","civic_number":"900","street_name":"Saint Denis","city":"Montreal","province":"Qu\u00e9bec","country":"Canada","postal_code":"H2X 3H8","latitude":"45.511138","longitude":"-73.555795","isOnline":true,"public_phone_number":"","mass_transit_info":""},{"name":"Arrondissement CDN-NDG - Parc Gilbert Layton","gw_id":"000DB92FB521","deployment_status":"DEPLOYED","civic_number":"6985","street_name":"avenue chester","city":"Montreal","province":"Qu\u00e9bec","country":"Canada","postal_code":"H4V 2Y9","latitude":"45.465454","longitude":"-73.649684","isOnline":true,"public_phone_number":"","mass_transit_info":""},{"name":"Village, Maison des Jeunes l'Asterisk","gw_id":"DE9FDB3BD5C7","deployment_status":"DEPLOYED","civic_number":"1575","street_name":"Amherst","city":"Montreal","province":"QC","country":"Canada","postal_code":"H2L 3L4","latitude":"45.518381","longitude":"-73.559031","isOnline":true,"public_phone_number":"514-318-LGBT","mass_transit_info":"metro Berri-UQAM"},{"name":"Terrebonne -Biblioth\u00e8que de La Plaine","gw_id":"000DB93DDDAD","deployment_status":"DEPLOYED","civic_number":"6900","street_name":"Rue Gu\u00e9rin","city":"Terrebonne","province":"QC","country":"Canada","postal_code":"J7M 1L9","latitude":"45.767180","longitude":"-73.724270","isOnline":true,"public_phone_number":"","mass_transit_info":""},{"name":"Rivi\u00e8re des Prairies - Pointe aux Trembles - Parc Pasquale Gattuso","gw_id":"DE9FDB3BD606","deployment_status":"DEPLOYED","civic_number":"11770","street_name":"place Gilles-Trottier","city":"Montr\u00e9al","province":"QC","country":"Canada","postal_code":"","latitude":"45.635783","longitude":"-73.576285","isOnline":true,"public_phone_number":"","mass_transit_info":"bus 48,49"},{"name":"MAP - M\u00e8res Avec Pouvoir","gw_id":"DC9FDB758301","deployment_status":"DEPLOYED","civic_number":"2015a","street_name":"rue Fullum","city":"Montr\u00e9al","province":"Qu\u00e9bec","country":"Canada","postal_code":"H2K 3N5","latitude":"45.530850","longitude":"-73.555694","isOnline":true,"public_phone_number":"(514) 282-1882","mass_transit_info":"Fullum et Ontario, bus 125, 10, 45, m\u00e9tro Frontenac"},{"name":"La place commune","gw_id":"68725124A90F","deployment_status":"DEPLOYED","civic_number":"7669","street_name":"Querbes","city":"Montreal","province":"QC","country":"Canada","postal_code":"H3N 2B7","latitude":"45.530253","longitude":"-73.628899","isOnline":false,"public_phone_number":"438 385 7669","mass_transit_info":""},{"name":"Espace pour la vie - Jardin botanique - Pavillon Japonais","gw_id":"02272223C945","deployment_status":"DEPLOYED","civic_number":"4101","street_name":"Sherbrooke Est","city":"Montreal","province":"qc","country":"canada","postal_code":" H1X 2B2","latitude":"45.560541","longitude":"-73.559675","isOnline":true,"public_phone_number":"(514) 872-1400","mass_transit_info":"Metro Pie IX"},{"name":"Mckibbin's Irish Pub - Bishop","gw_id":"DC9FDBF1AF91","deployment_status":"DEPLOYED","civic_number":"1426","street_name":"rue Bishop","city":"montreal","province":"QC","country":"canada","postal_code":"H3G 2E6","latitude":"45.496769","longitude":"-73.577356","isOnline":true,"public_phone_number":"(514) 288-1580","mass_transit_info":"Metro Guy-concordia corner Maisonneuve"},{"name":"Dame Tartine","gw_id":"26A43C71173E","deployment_status":"DEPLOYED","civic_number":"1653","street_name":"ontario est","city":"Montr\u00e9al","province":"QC","country":"Canada","postal_code":"H2L 1S8","latitude":"45.525249","longitude":"-73.559992","isOnline":true,"public_phone_number":"514 524 1134","mass_transit_info":"bus 45"},{"name":"L'Oratoire Saint-Joseph","gw_id":"DE9FDB3BD5C5","deployment_status":"DEPLOYED","civic_number":"3800","street_name":"Chemin Queen-Mary","city":"Montreal","province":"QC","country":"Canada","postal_code":"H3V 1H6","latitude":"45.492172","longitude":"-73.616944","isOnline":true,"public_phone_number":"+1 514-733-8211","mass_transit_info":""},{"name":"Caf\u00e9 Internet biblioth\u00e8que d'Ahuntsic","gw_id":"002722F127FE","deployment_status":"DEPLOYED","civic_number":"545","street_name":"Fleury est","city":"Montr\u00e9al","province":"QC","country":"Canada","postal_code":"H3L 1G6","latitude":"45.553334","longitude":"-73.662360","isOnline":true,"public_phone_number":"514-872-5674","mass_transit_info":""},{"name":"Rivi\u00e8re des Prairies - Pointe aux Trembles - Parc Pierre Blanchet","gw_id":"000DB9406AD9","deployment_status":"DEPLOYED","civic_number":"","street_name":"Parc Pierre-Blanchet","city":"Montr\u00e9al","province":"Qu\u00e9bec","country":"Canada","postal_code":"H1E 3T1","latitude":"45.628632","longitude":"-73.604183","isOnline":true,"public_phone_number":"","mass_transit_info":"Bus 43,48,49,353,380,442,448"},{"name":"Chateau Ramezay - rdc","gw_id":"DC9FDB020216","deployment_status":"DEPLOYED","civic_number":"280","street_name":"Notre Dame Est","city":"MONTREAL","province":"QC","country":"Canada","postal_code":"H2Y 1C5","latitude":"45.508756","longitude":"-73.553299","isOnline":true,"public_phone_number":"514 861-3708","mass_transit_info":"Metro Champ-de-Mars"},{"name":"Village, Autour d'un pain","gw_id":"002722F1614A","deployment_status":"DEPLOYED","civic_number":"1219","street_name":"Ste-Catherine est","city":"Montr\u00e9al","province":"QC","country":"Canada","postal_code":"H2L 2H1","latitude":"45.518662","longitude":"-73.556235","isOnline":true,"public_phone_number":"514-509-7676","mass_transit_info":"M\u00e9tro Beaudry"},{"name":"Rivi\u00e8re des Prairies - Pointe aux Trembles - Parc du Vieux-Moulin","gw_id":"68725124A8BA","deployment_status":"DEPLOYED","civic_number":"11630","street_name":"Notre-Dame Est ","city":"Montreal","province":"QC","country":"Canada","postal_code":"","latitude":"45.634844","longitude":"-73.492843","isOnline":true,"public_phone_number":"","mass_transit_info":""},{"name":"St-Laurent - Chalet du parc Caron","gw_id":"DC9FDB757C8D","deployment_status":"DEPLOYED","civic_number":"700","street_name":"rue Muir","city":"Saint-Laurent","province":"QC","country":"CANADA","postal_code":"H4L 4R4","latitude":"45.521145","longitude":"-73.671236","isOnline":true,"public_phone_number":"514 855-6123","mass_transit_info":"bus 128,121,171,378,380"},{"name":"ALPA - bureaux de l'administration","gw_id":"DE9FDB936BF8","deployment_status":"DEPLOYED","civic_number":"2030","street_name":"boulevard Pie IX","city":"Montr\u00e9al","province":"Qu\u00e9bec","country":"Canada","postal_code":"H1V 2C8","latitude":"45.550413","longitude":"-73.542158","isOnline":true,"public_phone_number":"514.255.3900","mass_transit_info":"Station de m\u00e9tro Pie IX (ligne verte) et\/ou Autobus 139"},{"name":"St-Sulpice (Le Caveau)","gw_id":"002722F12811","deployment_status":"DEPLOYED","civic_number":"1680","street_name":"rue St-Denis","city":"Montr\u00e9al","province":"QC","country":"Canada","postal_code":"H2X 3K6","latitude":"45.515129","longitude":"-73.563838","isOnline":true,"public_phone_number":"(514) 844-9458","mass_transit_info":"M\u00e9tro Berri, sortie St-Denis"},{"name":"Loisirs Communautaires Saint-Michel","gw_id":"6A72510DEE10","deployment_status":"DEPLOYED","civic_number":"7501","street_name":"Fran\u00e7ois-Perrault","city":"Montr\u00e9al","province":"QC","country":"Canada","postal_code":"H2A 1M1","latitude":"45.561658","longitude":"-73.601307","isOnline":true,"public_phone_number":"514 729 8467","mass_transit_info":"M\u00e9tro St-Michel"},{"name":"Centre Commercial Quartier Cavendish","gw_id":"6872510E7477","deployment_status":"DEPLOYED","civic_number":"5800","street_name":"boulevard Cavendish","city":"C\u00f4te-Saint-Luc","province":"Qu\u00e9bec","country":"Canada","postal_code":"H4W 2T5","latitude":"45.475540","longitude":"-73.665746","isOnline":true,"public_phone_number":"514-487-4511","mass_transit_info":"M\u00e9tro : stations Plamondon et Namur\r\nLignes d'autobus : 104, 138, 161, 162, 370"},{"name":"Technopole Angus - Molson et William-Tremblay","gw_id":"26A43C938E3C","deployment_status":"DEPLOYED","civic_number":"4101","street_name":"Molson","city":"Montr\u00e9al","province":"QC","country":"CANADA","postal_code":"H1Y 3L1","latitude":"45.542261","longitude":"-73.564325","isOnline":true,"public_phone_number":"","mass_transit_info":"Bus 97,27,94"},{"name":"Village, Bar STUD - StCatherine","gw_id":"DE9FDB038E37","deployment_status":"DEPLOYED","civic_number":"1812","street_name":"Ste-Catherine Est","city":"Montr\u00e9al","province":"Qu\u00e9bec","country":"Canada","postal_code":"H2K 2H3","latitude":"45.522765","longitude":"-73.552058","isOnline":true,"public_phone_number":"514-598-8243","mass_transit_info":"Bus 45,15,358,150,34,170,769, metro Papineau"},{"name":"Le Divan Orange","gw_id":"002722F32C14","deployment_status":"DEPLOYED","civic_number":"4234","street_name":"boul. St-Laurent","city":"Montreal","province":"QC","country":"CANADA","postal_code":"H2W 1Z3","latitude":"45.518106","longitude":"-73.582392","isOnline":true,"public_phone_number":"(514) 840-9090","mass_transit_info":""},{"name":"Arrondissement CDN-NDG - Parc Kent","gw_id":"000DB92FB701","deployment_status":"DEPLOYED","civic_number":"3200","street_name":"Appleton","city":"Montreal","province":"QC","country":"Canada","postal_code":"","latitude":"45.504540","longitude":"-73.631663","isOnline":true,"public_phone_number":"","mass_transit_info":""},{"name":"Espace pour la vie - Jardin botanique - Insectarium","gw_id":"0227221D7554","deployment_status":"DEPLOYED","civic_number":"4581","street_name":"Sherbrooke Est","city":"Montreal","province":"QC","country":"Canada","postal_code":"H1X 2B2","latitude":"45.561023","longitude":"-73.557857","isOnline":true,"public_phone_number":"514 872 7077","mass_transit_info":"Metro Viau"},{"name":"Village, 1000 grammes","gw_id":"DC9FDB02B5FC","deployment_status":"DEPLOYED","civic_number":"1495","street_name":"Ste-Catherine Est","city":"Montr\u00e9al","province":"Qu\u00e9bec","country":"Canada","postal_code":"H2L 2H9","latitude":"45.521132","longitude":"-73.553849","isOnline":true,"public_phone_number":"514 596-3933","mass_transit_info":"M\u00e9tro Beaudry"},{"name":"Repentigny - Parc Charles de Gaulle - Parc Thiffault","gw_id":"000DB92F59B1","deployment_status":"DEPLOYED","civic_number":"435","street_name":"Notre Dame","city":"Repentigny","province":"Qu\u00e9bec","country":"CANADA","postal_code":"J6A 2T3","latitude":"45.737854","longitude":"-73.447690","isOnline":true,"public_phone_number":"","mass_transit_info":""},{"name":"Tourisme Montreal - Place Jacques Cartier","gw_id":"DC9FDB3E74D1","deployment_status":"DEPLOYED","civic_number":"174","street_name":"Notre-Dame Est","city":"Montr\u00e9al","province":"QC","country":"Canada","postal_code":"H2Y 1C2","latitude":"45.508019","longitude":"-73.554071","isOnline":true,"public_phone_number":"514 874 1696","mass_transit_info":"l'hotel de ville, m\u00e9tro places d'armes"},{"name":"Terrebonne - Parc et Centre Angora","gw_id":"000DB93F80B1","deployment_status":"DEPLOYED","civic_number":"4125","street_name":"rue d'argenson","city":"Terrebonne","province":"Qu\u00e9bec","country":"Canada","postal_code":"J6X 3E2","latitude":"45.712873","longitude":"-73.668684","isOnline":true,"public_phone_number":"","mass_transit_info":""},{"name":"\u00c9cole de danse Tango Libre","gw_id":"98FC11650ACA","deployment_status":"DEPLOYED","civic_number":"1650","street_name":"rue marie anne est","city":"MONTREAL","province":"QC","country":"Canada","postal_code":"H2H 1T3","latitude":"45.531245","longitude":"-73.572845","isOnline":true,"public_phone_number":"514-527-5197","mass_transit_info":""},{"name":"Pagaille Caf\u00e9 Resto","gw_id":"DC9FDB8FB803","deployment_status":"DEPLOYED","civic_number":"101","street_name":"Villeneuve Ouest","city":"Montreal","province":"Quebec","country":"Canada","postal_code":"H2T 2R6","latitude":"45.520226","longitude":"-73.590496","isOnline":false,"public_phone_number":"514 563 1636","mass_transit_info":"bus 55"},{"name":"Th\u00e9\u00e2tre d'Aujourd'hui - Salle de r\u00e9p\u00e9tition","gw_id":"DC9FDB02B559","deployment_status":"DEPLOYED","civic_number":"3900","street_name":"Saint Denis","city":"Montr\u00e9al","province":"QC","country":"Canada","postal_code":"H2W 2M2","latitude":"45.519830","longitude":"-73.574171","isOnline":true,"public_phone_number":"514-282-7516","mass_transit_info":"m\u00e9tro Sherbrooke"},{"name":"JBM - Baton Rouge - Dollard Des Ormeaux","gw_id":"DE9FDB3BD5BB","deployment_status":"DEPLOYED","civic_number":"3839","street_name":"Boulevard Saint-Jean","city":"Dollard-des-Ormeaux","province":"Qu\u00e9bec","country":"Canada","postal_code":"H9G 1X2","latitude":"45.474416","longitude":"-73.835112","isOnline":true,"public_phone_number":"(514) 626-6440","mass_transit_info":"Bus 376,201,205,382,470"},{"name":"Beaufort Caf\u00e9","gw_id":"24A43C4D7887","deployment_status":"DEPLOYED","civic_number":"414","street_name":"Saint-Zotique Est","city":"Canada","province":"Qu\u00e9bec","country":"Canada","postal_code":"H2S 1L9","latitude":"45.535819","longitude":"-73.608083","isOnline":true,"public_phone_number":"(514) 274-6969","mass_transit_info":"Metro Beaubien"},{"name":"Hawgs Deli and Bar - Indoor","gw_id":"002722F32E1A","deployment_status":"DEPLOYED","civic_number":"6795","street_name":"Jarry Est ","city":"Montreal","province":"QC","country":"Canada","postal_code":"H1P 1W6","latitude":"45.597694","longitude":"-73.579055","isOnline":true,"public_phone_number":"(514) 327-3344","mass_transit_info":""},{"name":"La Vitrine","gw_id":"002722F15FAA","deployment_status":"DEPLOYED","civic_number":"2","street_name":"Sainte-Catherine Est","city":"Montr\u00e9al","province":"QC","country":"Canada","postal_code":"H2X 1K4","latitude":"45.509475","longitude":"-73.563384","isOnline":true,"public_phone_number":"514 285 4545","mass_transit_info":"Metro Berri-UQAM ou St-Laurent"},{"name":"Rodizio Brasil - Terrasse","gw_id":"0027224A8A0B","deployment_status":"DEPLOYED","civic_number":"160","street_name":"Notre-Dame Est","city":"Montreal","province":"Quebec","country":"Canada","postal_code":"H2Y 1C2","latitude":"45.507885","longitude":"-73.554342","isOnline":true,"public_phone_number":"(514) 508-3883","mass_transit_info":"Metro Places d'armes ou Champ de mars"},{"name":"Terrebonne - Parc Saint Sacrement","gw_id":"000DB93DDD79","deployment_status":"DEPLOYED","civic_number":"1126","street_name":"rue G\u00e9d\u00e9on-M. Pr\u00e9vost","city":"Terrebonne","province":"QC","country":"Canada","postal_code":"J6W 3G3","latitude":"45.703092","longitude":"-73.640001","isOnline":true,"public_phone_number":"","mass_transit_info":""},{"name":"Centre communautaire du Plateau","gw_id":"24A43C4D3143","deployment_status":"DEPLOYED","civic_number":"2275","street_name":"St Joseph est","city":"Montr\u00e9al","province":"Qu\u00e9bec","country":"Canada","postal_code":"H2H 1G4","latitude":"45.539379","longitude":"-73.575577","isOnline":false,"public_phone_number":"(514) 872-6830","mass_transit_info":"M\u00e9tro Laurier + autobus 27"},{"name":"Juliette et Chocolat Laurier","gw_id":"DC9FDB58AF3B","deployment_status":"DEPLOYED","civic_number":"377","street_name":"rue Laurier Ouest","city":"Montr\u00e9al","province":"QC","country":"CANADA","postal_code":"H2V 2K3","latitude":"45.519064","longitude":"-73.596677","isOnline":true,"public_phone_number":"(514) 510-5651","mass_transit_info":""},{"name":"Rivi\u00e8re des Prairies - Pointe aux Trembles - Parc et Piscine Maria Goretti","gw_id":"98FC115D62DE","deployment_status":"DEPLOYED","civic_number":"488","street_name":"85e Avenue","city":"Montreal","province":"QC","country":"Canada","postal_code":"H1A 5S8","latitude":"45.691797","longitude":"-73.487850","isOnline":true,"public_phone_number":"","mass_transit_info":""},{"name":"Village, Studio Backstage - Exterieur - 2","gw_id":"DE9FDB03FE8A","deployment_status":"DEPLOYED","civic_number":"1661","street_name":"Sainte Catherine Est","city":"Montreal","province":"QC","country":"Canada","postal_code":"","latitude":"45.522020","longitude":"-73.552923","isOnline":true,"public_phone_number":"","mass_transit_info":"Metro Papineau ou Beaudry"},{"name":"La Boite Gourmande","gw_id":"002722F32E20","deployment_status":"DEPLOYED","civic_number":"445","street_name":"rue Laurier Est","city":"Montreal","province":"QC","country":"CANADA","postal_code":"H2J 2E6","latitude":"45.527351","longitude":"-73.589194","isOnline":true,"public_phone_number":"(514) 270-5222","mass_transit_info":"Metro Laurier, Marcher vers Saint-Denis"},{"name":"Parc Lafontaine - Chalet Restaurant - Espace Lafontaine","gw_id":"26A43C4B1850","deployment_status":"DEPLOYED","civic_number":"3933","street_name":"Avenue du Parc la Fontaine","city":"Montr\u00e9al","province":"Qu\u00e9bec","country":"Canada","postal_code":"H2L 0C7","latitude":"45.525136","longitude":"-73.569583","isOnline":true,"public_phone_number":"(514) 280-2525","mass_transit_info":"metro Mont Royal, bus 97, 45"},{"name":"Daylight Factory","gw_id":"001A705A7028","deployment_status":"DEPLOYED","civic_number":"1030","street_name":"rue St-Alexandre","city":"Montr\u00e9al","province":"Qu\u00e9bec","country":"Canada","postal_code":"H2Z 1P3","latitude":"45.502989","longitude":"-73.563013","isOnline":true,"public_phone_number":"(514) 871-4774","mass_transit_info":"M\u00e9tro Square-Victoria"},{"name":"Arrondissement Montreal Nord - Parc Lacordaire","gw_id":"000DB94003A5","deployment_status":"DEPLOYED","civic_number":"12576","street_name":"boulevard Lacordaire","city":"Montr\u00e9al","province":"Qu\u00e9bec","country":"","postal_code":"H1G 4L8","latitude":"45.616849","longitude":"-73.630769","isOnline":true,"public_phone_number":"514 433 7270","mass_transit_info":""},{"name":"Atwater Library","gw_id":"DC9FDB02028B","deployment_status":"DEPLOYED","civic_number":"1200","street_name":"rue Atwater","city":"Montr\u00e9al","province":"Qu\u00e9bec","country":"Canada","postal_code":"H3Z 1X4","latitude":"45.488742","longitude":"-73.584055","isOnline":true,"public_phone_number":"(514) 935-7344","mass_transit_info":"Metro Atwater"},{"name":"Arrondissement du Plateau - Parc Sir-Wilfrid-Laurier","gw_id":"000DB930306D","deployment_status":"DEPLOYED","civic_number":"1115","street_name":"avenue Laurier Est","city":"Montr\u00e9al","province":"QC","country":"Canada","postal_code":"H2J 1G8","latitude":"45.531104","longitude":"-73.585969","isOnline":true,"public_phone_number":"","mass_transit_info":"M\u00e9tro Laurier, Bus 45 arr\u00eat Laurier"},{"name":"Promenade Bellerive","gw_id":"26A43CFDE18A","deployment_status":"DEPLOYED","civic_number":"8300","street_name":"rue Bellerive","city":"Montr\u00e9al","province":"QC","country":"CANADA","postal_code":"H1L 6S2","latitude":"45.595050","longitude":"-73.509250","isOnline":true,"public_phone_number":"(514) 493-1967","mass_transit_info":"M\u00e9tro H. Beaugrand+Bus 185 E. terminus"},{"name":"Rivi\u00e8re des Prairies - Pointe aux Trembles - Parc et Piscine Alexis Carrel","gw_id":"000DB93CD029","deployment_status":"DEPLOYED","civic_number":"12600","street_name":"Avenue Alexis-Carrel","city":"Montr\u00e9al","province":"Qu\u00e9bec","country":"Canada","postal_code":"H1E 3A9","latitude":"45.644317","longitude":"-73.588626","isOnline":true,"public_phone_number":"","mass_transit_info":"bus 48"},{"name":"Monument National","gw_id":"022722EDBCE5","deployment_status":"DEPLOYED","civic_number":"1182","street_name":"Boulevard St-Laurent","city":"Montr\u00e9al","province":"Qu\u00e9bec","country":"Canada","postal_code":"H2X 2S5","latitude":"45.509191","longitude":"-73.562353","isOnline":true,"public_phone_number":"514 871 9883","mass_transit_info":"Metro Saint-Laurent, Bus 55"},{"name":"Les Petites Mains - salle polyvalente 2e","gw_id":"DC9FDB670C6E","deployment_status":"DEPLOYED","civic_number":"7595","street_name":"Saint-Laurent","city":"Montr\u00e9al","province":"Qu\u00e9bec","country":"Canada","postal_code":"H2R 1W9","latitude":"45.536831","longitude":"-73.623496","isOnline":true,"public_phone_number":"514 738 8989","mass_transit_info":"metro de Castelneau ou bus 55"},{"name":"Theatre Centaur","gw_id":"002722F32C19","deployment_status":"DEPLOYED","civic_number":"453","street_name":"Saint-Fran\u00e7ois-Xavier","city":"Montreal","province":"QC","country":"Canada","postal_code":"H2Y 2T2","latitude":"45.503462","longitude":"-73.556477","isOnline":true,"public_phone_number":"(514) 288-1229","mass_transit_info":"Metro Places d'armes"},{"name":"Ecomus\u00e9e du fier monde","gw_id":"002722F1273C","deployment_status":"DEPLOYED","civic_number":"2050","street_name":"Amherst","city":"Montreal","province":"QC","country":"Canada","postal_code":"H2L 3L8","latitude":"45.520414","longitude":"-73.563648","isOnline":true,"public_phone_number":"514 528-8444","mass_transit_info":"M\u00e9tro beaudry"},{"name":"Promenade Masson","gw_id":"000DB9439AFD","deployment_status":"DEPLOYED","civic_number":"2800","street_name":"rue Masson","city":"Montr\u00e9al","province":"QC","country":"CANADA","postal_code":"H1Y 1W7","latitude":"45.547003","longitude":"-73.575575","isOnline":true,"public_phone_number":"","mass_transit_info":"Bus 47, 357, 254, 67, 357, 27"},{"name":"Santropol Caf\u00e9","gw_id":"DC9FDBF1BF82","deployment_status":"DEPLOYED","civic_number":"3990","street_name":"rue St-Urbain","city":"Montr\u00e9al","province":"QC","country":"CANADA","postal_code":"H2W 1T7","latitude":"45.515669","longitude":"-73.580412","isOnline":true,"public_phone_number":"(514) 842-3110","mass_transit_info":"Autobus 55 Saint-Laurent"},{"name":"Foufounes \u00e9lectriques","gw_id":"DE9FDB032729","deployment_status":"DEPLOYED","civic_number":"87","street_name":"Ste-Catherine E.","city":"Montr\u00e9al","province":"QC","country":"CANADA","postal_code":"H2X1K5","latitude":"45.511042","longitude":"-73.562952","isOnline":true,"public_phone_number":"(514) 844-5539","mass_transit_info":"M\u00e9tro St-Laurent et Berri-UQAM"},{"name":"Rivi\u00e8re des Prairies - Pointe aux Trembles - Parc Marie Claire Daveluy","gw_id":"000DB939CD59","deployment_status":"DEPLOYED","civic_number":"","street_name":"Angle Gabrielle-Roy et Jean-Yves-Bigras","city":"Montr\u00e9al","province":"Qu\u00e9bec","country":"Canada","postal_code":"H1E 4P7","latitude":"45.649478","longitude":"-73.567884","isOnline":false,"public_phone_number":"","mass_transit_info":""},{"name":"Musee Mc Cord","gw_id":"DE9FDB032787","deployment_status":"DEPLOYED","civic_number":"690","street_name":"Sherbrooke Ouest","city":"Montr\u00e9al","province":"QC","country":"Canada","postal_code":"H3A 1E9","latitude":"45.504683","longitude":"-73.573794","isOnline":false,"public_phone_number":"514 398-7100","mass_transit_info":"Metro Mc Gill"},{"name":"St-Sulpice (Place de l'ange)","gw_id":"00131095F710","deployment_status":"DEPLOYED","civic_number":"1680","street_name":"rue St-Denis","city":"Montr\u00e9al","province":"QC","country":"CANADA","postal_code":"H2X 3K6","latitude":"45.515174","longitude":"-73.564239","isOnline":true,"public_phone_number":"(514) 844-9458","mass_transit_info":""},{"name":"Espace pour la vie - Biodome","gw_id":"02272223C68B","deployment_status":"DEPLOYED","civic_number":"4777","street_name":"Pierre de Coubertin","city":"montreal","province":"QC","country":"canada","postal_code":"H1V 1B3","latitude":"45.560017","longitude":"-73.549921","isOnline":true,"public_phone_number":"(514) 868-3000","mass_transit_info":"metro Viau ou Pie-IX"},{"name":"Village, Mohawk - Barbier etc","gw_id":"24A43C7DD1AB","deployment_status":"DEPLOYED","civic_number":"1305","street_name":"Papineau","city":"Montreal","province":"Qu\u00e9bec","country":"Canada","postal_code":"H2K 4H3","latitude":"45.522433","longitude":"-73.551977","isOnline":true,"public_phone_number":"514 524 7582","mass_transit_info":"Bus 45,15,358,150,34,170,769, metro Papineau"},{"name":"ALPA - Club de Recherche d'emploi et Cours de Fran\u00e7ais","gw_id":"DE9FDB936A0F","deployment_status":"DEPLOYED","civic_number":"2030","street_name":"boulevard Pie IX","city":"Montr\u00e9al","province":"Quebec","country":"canada","postal_code":"H1V 2C8","latitude":"45.550413","longitude":"-73.542158","isOnline":true,"public_phone_number":"514.255.3900","mass_transit_info":"Station de m\u00e9tro Pie IX (ligne verte) et\/ou Autobus 139"},{"name":"Chenoy's Deli - Dollar des Ormeaux","gw_id":"DC9FDB02019A","deployment_status":"DEPLOYED","civic_number":"3616","street_name":"Boul. Saint-Jean","city":"Dollard-des-Ormeaux","province":"QC","country":"Canada","postal_code":"","latitude":"45.472651","longitude":"-73.834588","isOnline":true,"public_phone_number":"(514) 620-2584","mass_transit_info":""},{"name":"Ar\u00e9na Maurice Richard Lobby","gw_id":"00156D80E0A9","deployment_status":"DEPLOYED","civic_number":"2800","street_name":"Viau","city":"Montr\u00e9al","province":"QC","country":"Canada","postal_code":"H1V3J3","latitude":"45.562126","longitude":"-73.546991","isOnline":true,"public_phone_number":"514-872-6666","mass_transit_info":"M\u00e9tro Viau"},{"name":"Office de Consultation Publique de Montr\u00e9al - OCPM","gw_id":"000DB94006F1","deployment_status":"DEPLOYED","civic_number":"1550","street_name":"rue Metcalfe","city":"Montreal","province":"Quebec","country":"Canada","postal_code":"H3A1X6","latitude":"45.500990","longitude":"-73.573752","isOnline":true,"public_phone_number":"","mass_transit_info":"Metro Peel"},{"name":"Avenue du Mont-Royal \u2013 Parc des Compagnons-de-St-Laurent","gw_id":"000DB93CB5F1","deployment_status":"DEPLOYED","civic_number":"1990","street_name":"Mont-Royal Est","city":"Montr\u00e9al","province":"QC","country":"Canada","postal_code":"H2H 1J4","latitude":"45.534418","longitude":"-73.573006","isOnline":true,"public_phone_number":"514 527-3485","mass_transit_info":"Metro Mont-Royal\r\nBus 97"},{"name":"Caf\u00e9 L\u00e9zard sur Masson","gw_id":"DC9FDB02B5F7","deployment_status":"DEPLOYED","civic_number":"3119","street_name":"rue Masson","city":"Montr\u00e9al","province":"qc","country":"canada","postal_code":"H1Y 1X9","latitude":"45.549474","longitude":"-73.574082","isOnline":true,"public_phone_number":"(514) 729-3777","mass_transit_info":"M\u00e9tro Laurier, autobus 47"},{"name":"Centre communautaire du plateau - bureau J2000","gw_id":"02156D4D4B4E","deployment_status":"DEPLOYED","civic_number":"2275","street_name":"St Joseph est","city":"Montreal","province":"QC","country":"Canada","postal_code":"H2H 1G4","latitude":"45.539792","longitude":"-73.575188","isOnline":true,"public_phone_number":"(514) 872-6830","mass_transit_info":"M\u00e9tro Laurier + autobus 27"},{"name":"Maison Th\u00e9\u00e2tre","gw_id":"002722B5F013","deployment_status":"DEPLOYED","civic_number":"245","street_name":"Ontario Est","city":"Montreal","province":"QC","country":"Canada","postal_code":"H2X 3Y6","latitude":"45.514234","longitude":"-73.565959","isOnline":true,"public_phone_number":"514 288-7211","mass_transit_info":"AUTOBUS : lignes 125, 55, 24, 30 et 15\r\nM\u00c9TRO : Saint-Laurent, Berri-UQAM ou Sherbrooke"},{"name":"H\u00e9ma-Qu\u00e9bec - Globules Laval","gw_id":"002722B5EFF9","deployment_status":"DEPLOYED","civic_number":"1600","street_name":"Boulevard Le Corbusier","city":"Laval","province":"QC","country":"Canada","postal_code":"H7S 1Y8","latitude":"45.564622","longitude":"-73.731924","isOnline":true,"public_phone_number":"514 832-5000","mass_transit_info":"Station Montmorency"},{"name":"Buanderie Net-Net","gw_id":"002129712E50","deployment_status":"DEPLOYED","civic_number":"310","street_name":"Avenue Duluth Est","city":"Montr\u00e9al","province":"Qu\u00e9bec","country":"Canada","postal_code":"H2W 1H9","latitude":"45.519882","longitude":"-73.576712","isOnline":true,"public_phone_number":"514-419-8511","mass_transit_info":""},{"name":"Quai des brumes","gw_id":"68725140CD1E","deployment_status":"DEPLOYED","civic_number":"4481","street_name":"rue St-Denis","city":"Montreal","province":"QC","country":"CANADA","postal_code":"H2J 2L2","latitude":"45.524026","longitude":"-73.582432","isOnline":true,"public_phone_number":"(514) 499-0467","mass_transit_info":"M\u00e9tro Mont-Royal"},{"name":"La Soci\u00e9t\u00e9 Textile","gw_id":"6872516485F8","deployment_status":"DEPLOYED","civic_number":"5000","street_name":"Avenue du parc","city":"Montreal","province":"Quebec","country":"Canada","postal_code":"H2V4E8","latitude":"45.518977","longitude":"-73.594678","isOnline":true,"public_phone_number":"514 903 2272","mass_transit_info":"bus 80"},{"name":"Arrondissement Ahuntsic - Centre communautaire Henri Julien","gw_id":"26A43C4B8B27","deployment_status":"DEPLOYED","civic_number":"9300","street_name":"rue Saint Denis","city":"Montr\u00e9al","province":"Qu\u00e9bec","country":"canada","postal_code":"H2M 1P1","latitude":"45.548162","longitude":"-73.648890","isOnline":true,"public_phone_number":"","mass_transit_info":""},{"name":"Village, Buanderie Amherst","gw_id":"DC9FDB0201FC","deployment_status":"DEPLOYED","civic_number":"1499","street_name":"Amherst","city":"Montreal","province":"QC","country":"Canada","postal_code":"H2L 3L2","latitude":"45.518113","longitude":"-73.558476","isOnline":true,"public_phone_number":"514-526-4084","mass_transit_info":"metro beaudry"},{"name":"village - La Mie Matinale","gw_id":"24A43C9501F1","deployment_status":"DEPLOYED","civic_number":"1654","street_name":"sainte catherine est","city":"Montreal","province":"Qu\u00e9bec","country":"Canada","postal_code":"H2L 2H7","latitude":"45.521951","longitude":"-73.552761","isOnline":true,"public_phone_number":"(514) 529-5656","mass_transit_info":"metro papineau"},{"name":"Arrondissement Montreal Nord - Parc Saint-Laurent","gw_id":"DE9FDB3DAC3F","deployment_status":"DEPLOYED","civic_number":"11614","street_name":"Avenue Salk","city":"Montr\u00e9al","province":"Qu\u00e9bec","country":"Canada","postal_code":"","latitude":"45.606174","longitude":"-73.628828","isOnline":true,"public_phone_number":"","mass_transit_info":""},{"name":"Espace pour la vie - Jardin botanique - Restaurant","gw_id":"02272223CAA5","deployment_status":"DEPLOYED","civic_number":"4101","street_name":"Sherbrooke Est","city":"Montreal","province":"QC","country":"Canada","postal_code":" H1X 2B2","latitude":"45.556071","longitude":"-73.557303","isOnline":true,"public_phone_number":"(514) 872-1400","mass_transit_info":"Metro Pie IX"},{"name":"Bar Yer Mad","gw_id":"001217DA6D50","deployment_status":"DEPLOYED","civic_number":"901","street_name":"de Maisonneuve Est","city":"Montreal","province":"QC","country":"CANADA","postal_code":"H2L 1Z2","latitude":"45.517283","longitude":"-73.559284","isOnline":true,"public_phone_number":"514-522-9392","mass_transit_info":"Metro Berri-Uqam"},{"name":"Arrondissement Montreal Nord - Parc Ottawa","gw_id":"000DB93978C1","deployment_status":"DEPLOYED","civic_number":"10400","street_name":"Belleville","city":"Montreal","province":"QC","country":"Canada","postal_code":"","latitude":"45.581949","longitude":"-73.642196","isOnline":true,"public_phone_number":"","mass_transit_info":""},{"name":"Caf\u00e9 le 5e","gw_id":"6872514CDAD9","deployment_status":"DEPLOYED","civic_number":"290","street_name":"rue de la montagne","city":"Montreal","province":"Qu\u00e9bec","country":"Canada","postal_code":"H3C2B1","latitude":"45.491970","longitude":"-73.561802","isOnline":true,"public_phone_number":"","mass_transit_info":""},{"name":"St-Sulpice (Terrasse)","gw_id":"001217DA42C6","deployment_status":"DEPLOYED","civic_number":"1680","street_name":"rue St-Denis","city":"Montr\u00e9al","province":"Qu\u00e9bec","country":"CANADA","postal_code":"H2X 3K6","latitude":"45.514677","longitude":"-73.564711","isOnline":true,"public_phone_number":"(514) 844-9458","mass_transit_info":"M\u00e9tro Berri, sortie St-Denis"},{"name":"Cin\u00e9ma Beaubien","gw_id":"000DB93EBE71","deployment_status":"DEPLOYED","civic_number":"2396","street_name":"Beaubien E.","city":"Montr\u00e9al","province":"Qu\u00e9bec","country":"Canada","postal_code":"H2G 1N2","latitude":"45.548115","longitude":"-73.592080","isOnline":true,"public_phone_number":"514-721-6060","mass_transit_info":"M\u00e9tro Fabre+Bus 45 Sud ou M\u00e9tro Beaubien+Bus 18 Est"},{"name":"Village, Studio Backstage - Interieur","gw_id":"24A43C65C206","deployment_status":"DEPLOYED","civic_number":"1661","street_name":"Sainte Catherine Est","city":"Montreal","province":"QC","country":"Canada","postal_code":"","latitude":"45.522020","longitude":"-73.552923","isOnline":true,"public_phone_number":"","mass_transit_info":"Metro Papineau ou Beaudry"},{"name":"Shaika Caf\u00e9","gw_id":"24A43C950274","deployment_status":"DEPLOYED","civic_number":"5526","street_name":"Sherbrooke Ouest","city":"Montr\u00e9al","province":"Qu\u00e9bec","country":"Canada","postal_code":"H4A 3A7","latitude":"45.472048","longitude":"-73.612459","isOnline":true,"public_phone_number":"(514) 482-3898","mass_transit_info":"Metro Vendome puis Bus 105"},{"name":"Compagnie F.","gw_id":"24A43C9ADB9E","deployment_status":"DEPLOYED","civic_number":"1274","street_name":"Jean-Talon Est","city":"Montr\u00e9al","province":"Qu\u00e9bec","country":"Canada","postal_code":"H2R 1W3","latitude":"45.544168","longitude":"-73.610278","isOnline":true,"public_phone_number":"514-381-7333","mass_transit_info":"M\u00e9tro Beaubien"},{"name":"Carrefour Jeunesse Emploi C\u00f4te-Des-Neiges","gw_id":"6A7251097150","deployment_status":"DEPLOYED","civic_number":"6555","street_name":"Chemin de la C\u00f4te-Des-Neiges","city":"Montreal","province":"Qu\u00e9bec","country":"Canada","postal_code":"H3S 2A6","latitude":"45.502346","longitude":"-73.635143","isOnline":true,"public_phone_number":"514 342 5678","mass_transit_info":"bus 165,438"},{"name":"Caf\u00e9 Gervasi","gw_id":"DC9FDB7378CB","deployment_status":"DEPLOYED","civic_number":"8593","street_name":"Boulevard Langelier","city":"Montr\u00e9al","province":"Qu\u00e9bec","country":"Canada","postal_code":"H1P 2C6","latitude":"45.598659","longitude":"-73.590839","isOnline":true,"public_phone_number":"514-328-0556","mass_transit_info":""},{"name":"Groupe Harmonie - HLM DuFort","gw_id":"24A43C4D7719","deployment_status":"DEPLOYED","civic_number":"2101","street_name":"boulevard Ren\u00e9 Levesque Ouest","city":"Montr\u00e9al","province":"QC","country":"Canada","postal_code":"H3H 2P9","latitude":"45.489797","longitude":"-73.579513","isOnline":true,"public_phone_number":"","mass_transit_info":"m\u00e9tro Atwater"},{"name":"Rivi\u00e8re des Prairies - Pointe aux Trembles - Parc et piscine Richelieu","gw_id":"000DB93CB9D5","deployment_status":"DEPLOYED","civic_number":"13600","street_name":"Rue Forsyth","city":"Montreal","province":"QC","country":"CANADA","postal_code":"","latitude":"45.663478","longitude":"-73.504746","isOnline":true,"public_phone_number":"(514) 872-0110","mass_transit_info":""},{"name":"Village, 1000 Grammes - Rue 2","gw_id":"0227224B8A3E","deployment_status":"DEPLOYED","civic_number":"1495","street_name":"Ste-Catherine Est","city":"Montreal","province":"QC","country":"Canada","postal_code":"H2L 2H9","latitude":"45.521199","longitude":"-73.553854","isOnline":true,"public_phone_number":"514 596-3933","mass_transit_info":"M\u00e9tro Beaudry"},{"name":"Centre communautaire de loisir Lajeunesse - RDC","gw_id":"001EE57AD5C2","deployment_status":"DEPLOYED","civic_number":"7378","street_name":"boul. Lajeunesse","city":"Montr\u00e9al","province":"QC","country":"CANADA","postal_code":"H2R 2H8","latitude":"45.540468","longitude":"-73.617544","isOnline":true,"public_phone_number":"(514) 278-2654","mass_transit_info":"M\u00e9tro Jean-Talon"},{"name":"JBM - Tiffanie's - Descaries","gw_id":"26A43C4B8BFF","deployment_status":"DEPLOYED","civic_number":"7977","street_name":"Boul. Descaries","city":"Montr\u00e9al","province":"Qu\u00e9bec","country":"Canada","postal_code":"H4P 2H5","latitude":"45.498033","longitude":"-73.658084","isOnline":true,"public_phone_number":"514 737 7977","mass_transit_info":""},{"name":"Rivi\u00e8re des Prairies - Pointe aux Trembles - Parc Cl\u00e9mentine de la Rousseli\u00e8re","gw_id":"000DB9406B45","deployment_status":"DEPLOYED","civic_number":"","street_name":"Parc Cl\u00e9mentine de la Rousseli\u00e8re","city":"Montr\u00e9al","province":"QC","country":"Canada","postal_code":"H1A 1T5","latitude":"45.668099","longitude":"-73.492876","isOnline":true,"public_phone_number":"","mass_transit_info":"Bus 86,189"},{"name":"Centre de Gyn\u00e9cologie et de Maternit\u00e9 de Lasalle","gw_id":"0016B6B53CBC","deployment_status":"DEPLOYED","civic_number":"1811","street_name":"Avenue Dollard","city":"Lasalle","province":"Qu\u00e9bec","country":"CANADA","postal_code":"H8N 1T9","latitude":"45.429358","longitude":"-73.632304","isOnline":true,"public_phone_number":"(514) 364-3700","mass_transit_info":""},{"name":"Village, Bar STUD","gw_id":"002722F1616A","deployment_status":"DEPLOYED","civic_number":"1812","street_name":"Ste-Catherine Est","city":"514-598-8243","province":"Qu\u00e9bec","country":"Canada","postal_code":"H2K 2H3","latitude":"45.522917","longitude":"-73.551919","isOnline":true,"public_phone_number":"514-598-8243","mass_transit_info":"Bus 45,15,358,150,34,170,769, metro Papineau"},{"name":"Arrondissement Ville-Marie - Parc des Faubourgs","gw_id":"000DB93DDE55","deployment_status":"DEPLOYED","civic_number":"2000","street_name":"Avenue de Lorimier","city":"Montr\u00e9al","province":"QC","country":"CANADA","postal_code":"H2K 1V7","latitude":"45.526973","longitude":"-73.556772","isOnline":true,"public_phone_number":"","mass_transit_info":"Autobus 10, 45, 125, 360, 359 , m\u00e9tro papineau"},{"name":"Arrondissement CDN-NDG - Parc Jean Brillant","gw_id":"000DB9397831","deployment_status":"DEPLOYED","civic_number":"5252","street_name":"avenue Decelles","city":"Montreal","province":"Qu\u00e9bec","country":"Canada","postal_code":"","latitude":"45.496920","longitude":"-73.619731","isOnline":true,"public_phone_number":"","mass_transit_info":"m\u00e9tro C\u00f4te-des-neiges"},{"name":"Centre Educatif Communautaire Ren\u00e9 Goupil","gw_id":"02272221EE95","deployment_status":"DEPLOYED","civic_number":"4105","street_name":"47e rue","city":"Montreal","province":"qc","country":"CANADA","postal_code":"H1Z1L6","latitude":"45.580433","longitude":"-73.622096","isOnline":true,"public_phone_number":"514 596 4420","mass_transit_info":"47e rue coin Pie IX\r\n\r\nBus 139"},{"name":"Village, Le Cabaret Mado","gw_id":"DC9FDB3E7A25","deployment_status":"DEPLOYED","civic_number":"1115","street_name":"Ste Catherine est","city":"Montr\u00e9al","province":"Qu\u00e9bec","country":"Canada","postal_code":"H2L 2G6","latitude":"45.517759","longitude":"-73.556938","isOnline":true,"public_phone_number":"514-525-7566","mass_transit_info":"M\u00e9tro Beaudry"},{"name":"Conseil des arts de Montr\u00e9al","gw_id":"000DB932F691","deployment_status":"DEPLOYED","civic_number":"1210","street_name":"rue Sherbrooke est","city":"Montr\u00e9al","province":"Qu\u00e9bec","country":"Canada","postal_code":"H2L 1L9","latitude":"45.522624","longitude":"-73.565492","isOnline":true,"public_phone_number":"514-280-3580","mass_transit_info":"M\u00e9tro Sherbrooke"},{"name":"St-Laurent - Hotel de Ville","gw_id":"000DB94183ED","deployment_status":"DEPLOYED","civic_number":"777","street_name":"Boul. Marcel-Laurin","city":"Montreal","province":"Qu\u00e9bec","country":"Canada","postal_code":"H4M 2M7","latitude":"45.507106","longitude":"-73.682578","isOnline":true,"public_phone_number":"514 855-6000","mass_transit_info":"M\u00e9tro du Coll\u00e8ge"},{"name":"Arrondissement MHM - Place Simon valois et rue Ontario Est","gw_id":"000DB93F7E49","deployment_status":"DEPLOYED","civic_number":"3776","street_name":"Ontario Est","city":"Montr\u00e9al","province":"Qu\u00e9bec","country":"Canada","postal_code":"H1W 1S2","latitude":"45.547372","longitude":"-73.543704","isOnline":true,"public_phone_number":"","mass_transit_info":"metro Joliette"},{"name":"La Quincaillerie","gw_id":"001217DA42DB","deployment_status":"DEPLOYED","civic_number":"980","street_name":"rue Rachel Est","city":"Montr\u00e9al","province":"QC","country":"CANADA","postal_code":"H2J 2J3","latitude":"45.525290","longitude":"-73.574868","isOnline":true,"public_phone_number":"(514) 524-3000","mass_transit_info":""},{"name":"Caf\u00e9 l'Art\u00e8re","gw_id":"0027224A0B17","deployment_status":"DEPLOYED","civic_number":"7000","street_name":"Avenue du Parc","city":"Montreal","province":"QC","country":"Canada","postal_code":"H3N 1X1","latitude":"45.529684","longitude":"-73.619754","isOnline":true,"public_phone_number":"514-419-7798","mass_transit_info":"Metro Parc"},{"name":"Lapin Press\u00e9","gw_id":"00236916179A","deployment_status":"DEPLOYED","civic_number":"1309","street_name":"rue Laurier Est","city":"Montr\u00e9al","province":"QC","country":"CANADA","postal_code":"H2J 1H4","latitude":"45.533196","longitude":"-73.584173","isOnline":true,"public_phone_number":"(514) 903-3555","mass_transit_info":"M\u00e9tro Laurier"},{"name":"CHUM","gw_id":"000DB9341711","deployment_status":"DEPLOYED","civic_number":"3840","street_name":"saint urbain","city":"montreal","province":"qc","country":"canada","postal_code":"","latitude":"45.514523","longitude":"-73.577776","isOnline":true,"public_phone_number":"","mass_transit_info":""},{"name":"Caf\u00e9 le petit flore","gw_id":"68725140CC8A","deployment_status":"DEPLOYED","civic_number":"1145","street_name":"fleury Est","city":"Montreal","province":"QC","country":"Canada","postal_code":"H2C 2M9","latitude":"45.558715","longitude":"-73.658931","isOnline":true,"public_phone_number":"(514) 387-2640","mass_transit_info":"Metro Sauve \/ Bus 140"},{"name":"Cin\u00e9ma Beaubien - Parc Molson","gw_id":"02156D73933E","deployment_status":"DEPLOYED","civic_number":"2396","street_name":"Beaubien E.","city":"Montr\u00e9al","province":"Queb\u00e9c","country":"Canada","postal_code":"H2G 1N2","latitude":"45.549039","longitude":"-73.592759","isOnline":true,"public_phone_number":"(514) 721-6060","mass_transit_info":"M\u00e9tro Fabre+Bus 45 Sud ou M\u00e9tro Beaubien+Bus 18 Est"},{"name":"Kafe\u00efn caf\u00e9 bar","gw_id":"24A43C90338A","deployment_status":"DEPLOYED","civic_number":"1429A","street_name":"rue Bishop","city":"Montr\u00e9al","province":"QC","country":"CANADA","postal_code":"H3G 2E4","latitude":"45.496969","longitude":"-73.576861","isOnline":true,"public_phone_number":"(514) 904-6969","mass_transit_info":"M\u00e9tro Guy-Concordia"},{"name":"Rodizio Brasil - Interieur","gw_id":"002722F32E79","deployment_status":"DEPLOYED","civic_number":"160","street_name":"Notre-Dame Est","city":"Montr\u00e9al","province":"QC","country":"CANADA","postal_code":"H2Y 1C2","latitude":"45.507885","longitude":"-73.554342","isOnline":true,"public_phone_number":"(514) 508-3883","mass_transit_info":"Metro Places d'armes ou Champ de mars"},{"name":"Juliette et Chocolat St-Laurent","gw_id":"002722F160C6","deployment_status":"DEPLOYED","civic_number":"3600","street_name":"boul. St-Laurent","city":"Montr\u00e9al","province":"QC","country":"CANADA","postal_code":"H2X 2V4","latitude":"45.513768","longitude":"-73.572789","isOnline":true,"public_phone_number":"(438) 380-1090","mass_transit_info":"St-laurent, coin Prince-Arthur"},{"name":"Arrondissement du Plateau - Carr\u00e9 Saint Louis (parc)","gw_id":"26A43C938CE4","deployment_status":"DEPLOYED","civic_number":"3603","street_name":"Avenue Laval","city":"Montr\u00e9al","province":"Qu\u00e9bec","country":"Canada","postal_code":"H2X 3E1","latitude":"45.516716","longitude":"-73.570235","isOnline":true,"public_phone_number":"","mass_transit_info":"metro sherbrooke"},{"name":"Village, Studio Backstage - Exterieur 1","gw_id":"DE9FDB03FF46","deployment_status":"DEPLOYED","civic_number":"1661","street_name":"Sainte Catherine Est","city":"Montreal","province":"QC","country":"Canada","postal_code":"","latitude":"45.522020","longitude":"-73.552923","isOnline":true,"public_phone_number":"","mass_transit_info":"M\u00e9tro Papineau ou Beaudry"},{"name":"Rivi\u00e8re des Prairies - Pointe aux Trembles - Parc St-Jean-Baptiste","gw_id":"000DB93EBAC5","deployment_status":"DEPLOYED","civic_number":"1050","street_name":"St-Jean-Baptiste","city":"Montr\u00e9al","province":"Qc","country":"Canada","postal_code":"H1B4A1","latitude":"45.641243","longitude":"-73.499118","isOnline":true,"public_phone_number":"","mass_transit_info":""},{"name":"La Succursale","gw_id":"DE9FDB3BD5A2","deployment_status":"DEPLOYED","civic_number":"3188","street_name":"Masson","city":"montreal","province":"QC","country":"canada","postal_code":"H1Y1Y1","latitude":"45.550272","longitude":"-73.573569","isOnline":true,"public_phone_number":"514 508 1615","mass_transit_info":"Metro joliette\r\nBus 67\r\n\r\nsur masson et 10e Avenue"},{"name":"Arrondissement Ville-Marie - Square Cabot ","gw_id":"000DB9397681","deployment_status":"DEPLOYED","civic_number":"230","street_name":"St-catherine ouest","city":"Montreal","province":"QC","country":"Canada","postal_code":"H3N 1N2","latitude":"45.489593","longitude":"-73.583486","isOnline":true,"public_phone_number":"514-872-9465","mass_transit_info":"metro Atwater"},{"name":"Terrebonne - Biblioth\u00e8que de Lachenaie","gw_id":"DE9FDB3BD5C2","deployment_status":"DEPLOYED","civic_number":"3060","street_name":"Chemin Saint-Charles","city":"Terrebonne","province":"Qu\u00e9bec","country":"Canada","postal_code":"J6V 1A1","latitude":"45.699692","longitude":"-73.565347","isOnline":true,"public_phone_number":"","mass_transit_info":""},{"name":"Les Petites Mains Restaurant","gw_id":"24A43C4D83E3","deployment_status":"DEPLOYED","civic_number":"7595","street_name":"boul. St-Laurent","city":"Montreal","province":"QC","country":"CANADA","postal_code":"H2R 1W9","latitude":"45.536667","longitude":"-73.623317","isOnline":true,"public_phone_number":"(514) 738-8989","mass_transit_info":"Metro de Castelneau"},{"name":"Village, Le Cabaret Mado Antenne","gw_id":"DC9FDB3E7748","deployment_status":"DEPLOYED","civic_number":"1115","street_name":"Ste Catherine est","city":"Montr\u00e9al","province":"Qu\u00e9bec","country":"Canada","postal_code":"H2L 2G6","latitude":"","longitude":"","isOnline":true,"public_phone_number":"514-525-7566","mass_transit_info":"M\u00e9tro Beaudry"},{"name":"Jarry Deuxi\u00e8me - Parrainage Civique Les Marronniers","gw_id":"24A43C4D76C3","deployment_status":"DEPLOYED","civic_number":"2590","street_name":"Jarry est","city":"montreal","province":"qc","country":"canada","postal_code":"H2S 2H4","latitude":"45.560053","longitude":"-73.612891","isOnline":false,"public_phone_number":"438 764 8826","mass_transit_info":"Metro Iberville puis 10 min a pied\r\nOu Metro Jarry puis bus 193 vers l'est\r\n\r\nl'arret de bus 193 est devant la terrasse du Parainage Civique, sur Jarry coin 2e Avenue"},{"name":"Bar Yisst","gw_id":"68725124A912","deployment_status":"DEPLOYED","civic_number":"901","street_name":"Saint-Zotique Est","city":"Montreal","province":"QC","country":"CANADA","postal_code":"H2S 1M9","latitude":"45.538179","longitude":"-73.606275","isOnline":true,"public_phone_number":"(514) 439-0992","mass_transit_info":"M\u00e9tro Beaubien, bus 18"},{"name":"Katacombes - Coop de Travail","gw_id":"DC9FDB73790F","deployment_status":"DEPLOYED","civic_number":"1635","street_name":"Boul. St-Laurent","city":"Montreal","province":"QC","country":"CANADA","postal_code":"H2X 2S9","latitude":"45.511242","longitude":"-73.566577","isOnline":true,"public_phone_number":"(514) 462-9317","mass_transit_info":""},{"name":"Village, Studio Coiffure Perron + Aitken","gw_id":"DC9FDB3E73C9","deployment_status":"DEPLOYED","civic_number":"1493","street_name":"rue Amherst","city":"Montreal","province":"QC","country":"CANADA","postal_code":"H2L 3L2","latitude":"45.518030","longitude":"-73.558295","isOnline":true,"public_phone_number":"(514) 524-3442","mass_transit_info":"Metro Berri (coin de Maisonneuve)"},{"name":"Mc Kibbins - pointe claire","gw_id":"68725140CCBB","deployment_status":"DEPLOYED","civic_number":"6361","street_name":"Trans-Canada Hwy","city":"Pointe-Claire","province":"QC","country":"Canada","postal_code":"H9R 5A5","latitude":"45.467447","longitude":"-73.825757","isOnline":true,"public_phone_number":"(514) 693-1580","mass_transit_info":""},{"name":"Caf\u00e9 le Signet OBNL","gw_id":"24A43C4D76C1","deployment_status":"DEPLOYED","civic_number":"295","street_name":"boulevard Ste-Rose","city":"Laval","province":"QC","country":"Canada","postal_code":"H7L 1M1","latitude":"45.611337","longitude":"-73.791671","isOnline":true,"public_phone_number":"(450) 625-1222","mass_transit_info":"Ligne 151 et 73 de la STL"},{"name":"Rivi\u00e8re des Prairies - Pointe aux Trembles - Parc et Arena Ren\u00e9 Masson","gw_id":"000DB93DDE8D","deployment_status":"DEPLOYED","civic_number":"9175","street_name":"Perras","city":"Montr\u00e9al","province":"Qu\u00e9bec","country":"Canada","postal_code":"H1E3J7","latitude":"45.651642","longitude":"-73.577833","isOnline":true,"public_phone_number":"","mass_transit_info":"Bus 43, 49"},{"name":"Repentigny - Parc de L'Ile Lebel","gw_id":"000DB92EA8A1","deployment_status":"DEPLOYED","civic_number":"396","street_name":"rue Notre-Dame","city":"Repentigny","province":"Qu\u00e9bec","country":"Canada","postal_code":"J6A 2T1","latitude":"45.736668","longitude":"-73.444847","isOnline":true,"public_phone_number":"","mass_transit_info":""},{"name":"Lachine - Rue Notre-Dame et CJE","gw_id":"000DB939772D","deployment_status":"DEPLOYED","civic_number":"735","street_name":"Notre-Dame","city":"Lachine","province":"Quebec","country":"Canada","postal_code":"H8S2B5","latitude":"45.434894","longitude":"-73.670554","isOnline":true,"public_phone_number":"","mass_transit_info":""},{"name":"Repentigny - Parc Champigny","gw_id":"000DB92A7979","deployment_status":"DEPLOYED","civic_number":"255","street_name":"Champigny","city":"Repentigny","province":"QC","country":"Canada","postal_code":"J6A3P5","latitude":"45.730930","longitude":"-73.475866","isOnline":true,"public_phone_number":"","mass_transit_info":""},{"name":"CAP Saint-Barnab\u00e9","gw_id":"6872512CB010","deployment_status":"DEPLOYED","civic_number":"1475","street_name":"Bennett","city":"Montreal","province":"QC","country":"Canada","postal_code":"H1V2S5","latitude":"45.553481","longitude":"-73.533718","isOnline":true,"public_phone_number":"514 251 2081","mass_transit_info":""},{"name":"Rue Laurier Ouest","gw_id":"000DB92F5989","deployment_status":"DEPLOYED","civic_number":"382","street_name":"Laurier Ouest","city":"Montreal","province":"Qu\u00e9bec","country":"Canada","postal_code":"H2V 2K7","latitude":"45.519121","longitude":"-73.596244","isOnline":true,"public_phone_number":"","mass_transit_info":"bus 80,51"},{"name":"St-Sulpice (Resto-Pub)","gw_id":"001217DA42B7","deployment_status":"DEPLOYED","civic_number":"1680","street_name":"rue St-Denis","city":"Montreal","province":"QC","country":"CANADA","postal_code":"H2X 3K6","latitude":"45.515113","longitude":"-73.564389","isOnline":true,"public_phone_number":"(514) 844-9458","mass_transit_info":"M\u00e9tro Berri, sortie St-Denis"},{"name":"Biblioth\u00e8que Marc Favreau","gw_id":"000DB94159BD","deployment_status":"DEPLOYED","civic_number":"500","street_name":"Rosemont","city":"Montr\u00e9al","province":"Quebec","country":"Canada","postal_code":"H2S 1Z3","latitude":"45.531743","longitude":"-73.597810","isOnline":false,"public_phone_number":"514 872 7272","mass_transit_info":"Metro Rosemont ou bus 3, 25, 30, 31, 161 , 197"},{"name":"Espace pour la vie - Jardin botanique - Hall","gw_id":"02156D4DABEF","deployment_status":"DEPLOYED","civic_number":"4101","street_name":"Sherbrooke Est","city":"Montreal","province":"QC","country":"Canada","postal_code":" H1X 2B2","latitude":"45.557168","longitude":"-73.556332","isOnline":true,"public_phone_number":"(514) 872-1400","mass_transit_info":"Metro Pie IX"},{"name":"Rekreativ - Nadine Samuel - 135 Van Horne","gw_id":"6A725109A99C","deployment_status":"DEPLOYED","civic_number":"135","street_name":"Van Horne","city":"Montr\u00e9al","province":"Qu\u00e9bec","country":"Canada","postal_code":"","latitude":"45.527622","longitude":"-73.607823","isOnline":true,"public_phone_number":"","mass_transit_info":""},{"name":"Th\u00e9\u00e2tre d'Aujourd'hui - Hall","gw_id":"022722B4F00E","deployment_status":"DEPLOYED","civic_number":"3900","street_name":"Saint Denis","city":"Montr\u00e9al","province":"QC","country":"Canada","postal_code":"H2W 2M2","latitude":"45.519830","longitude":"-73.574171","isOnline":true,"public_phone_number":"514-282-7516","mass_transit_info":"m\u00e9tro Sherbrooke"},{"name":"Village, 1000 Grammes - Rue 1","gw_id":"00156D3EB35B","deployment_status":"DEPLOYED","civic_number":"1495","street_name":"Ste-Catherine Est","city":"Montr\u00e9al","province":"Qu\u00e9bec","country":"Canada","postal_code":"H2L 2H9","latitude":"45.521199","longitude":"-73.553854","isOnline":true,"public_phone_number":"514 596-3933","mass_transit_info":"metro beaudry"},{"name":"Caf\u00e9-Bar Le Boudoir - unifi","gw_id":"0418D6A93341","deployment_status":"DEPLOYED","civic_number":"850","street_name":"Avenue du Mont-Royal, Est","city":"Montr\u00e9al","province":"Qu\u00e9bec","country":"Canada","postal_code":"H2J 1X1","latitude":"45.526276","longitude":"-73.580827","isOnline":true,"public_phone_number":"(514) 526-2819","mass_transit_info":"Metro Mont-Royal\r\nAutobus 11-O, 97-O et 368-O"},{"name":"Arrondissement Ahuntsic - Parc Basile Routhier","gw_id":"000DB9407B89","deployment_status":"DEPLOYED","civic_number":"555-664","street_name":"Av Park Stanley","city":"Montreal","province":"QC","country":"CANADA","postal_code":"H2C","latitude":"45.558256","longitude":"-73.672930","isOnline":true,"public_phone_number":"","mass_transit_info":"Metro Henri-Bourassa"},{"name":"Centre communautaire de loisir Lajeunesse - couloir 3e - Nord","gw_id":"0027222ABCFA","deployment_status":"DEPLOYED","civic_number":"7378","street_name":"Lajeunesse","city":"Montreal","province":"QC","country":"Canada","postal_code":"H2R2H8","latitude":"45.540469","longitude":"-73.617522","isOnline":true,"public_phone_number":"514 278 2654","mass_transit_info":"M\u00e9tro Jean Talon"},{"name":"Chasse Toyota","gw_id":"00259C4AA6F1","deployment_status":"DEPLOYED","civic_number":"819","street_name":"Rachel","city":"Montreal","province":"Quebec","country":"Canada","postal_code":"H2J 2H7","latitude":"45.523936","longitude":"-73.576344","isOnline":true,"public_phone_number":"514-527-3411","mass_transit_info":"Metro Mont Royal"},{"name":"Ar\u00e9na Maurice Richard Glace","gw_id":"00156DE48AF2","deployment_status":"DEPLOYED","civic_number":"2800","street_name":"Viau","city":"Montr\u00e9al","province":"QC","country":"Canada","postal_code":"H1V3J3","latitude":"45.562234","longitude":"-73.547279","isOnline":true,"public_phone_number":"514-872-6666","mass_transit_info":"M\u00e9tro Viau"},{"name":"Centre de Ressources Communautaire de Cote-Des-Neiges - CRCCDN - OBNL","gw_id":"0227222150D5","deployment_status":"DEPLOYED","civic_number":"6767","street_name":"Chemin de la Cote-des-Neiges","city":"Montreal","province":"514-868-5160","country":"","postal_code":"","latitude":"45.503215","longitude":"-73.637014","isOnline":true,"public_phone_number":"514 868-5160","mass_transit_info":"Metro cote des neiges puis bus 165\r\nou metro Plamondon puis marcher jusqu\u2019au chemin de la cote des neiges"},{"name":"arrondissement Anjou - centre communautaire","gw_id":"000DB9332F05","deployment_status":"DEPLOYED","civic_number":"7800","street_name":"Boul M\u00e9tropolitain E","city":"Montreal","province":"QC","country":"CANADA","postal_code":"H1K 1A1","latitude":"45.606408","longitude":"-73.563862","isOnline":true,"public_phone_number":"","mass_transit_info":""},{"name":"Arrondissement CDN-NDG - Parc Notre-Dame-de-Gr\u00e2ce","gw_id":"000DB9332D0D","deployment_status":"DEPLOYED","civic_number":"3500","street_name":"avenue Girouard","city":"Montreal","province":"QC","country":"CANADA","postal_code":"","latitude":"45.472927","longitude":"-73.614729","isOnline":true,"public_phone_number":"","mass_transit_info":"bus sherbrooke ouest"},{"name":"Repentigny - Parc Saint Laurent","gw_id":"000DB9397859","deployment_status":"DEPLOYED","civic_number":"280","street_name":"notre dame est","city":"Repentigny","province":"QC","country":"CANADA","postal_code":"","latitude":"45.726988","longitude":"-73.456945","isOnline":true,"public_phone_number":"","mass_transit_info":"bus 15,400,300"},{"name":"Arrondissement Montreal Nord - Centre de Loisirs Communautaire","gw_id":"000DB9332E8D","deployment_status":"DEPLOYED","civic_number":"11121","street_name":"salk","city":"Montreal","province":"QC","country":"CANADA","postal_code":"H1G 4Y3","latitude":"45.601105","longitude":"-73.623127","isOnline":true,"public_phone_number":"514 328-4000 poste 4152","mass_transit_info":""},{"name":"Repentigny - Centre Sportif Gilles Tremblay et parc Maurice Richard","gw_id":"000DB92EA68D","deployment_status":"DEPLOYED","civic_number":"223","street_name":"Jacques Plante","city":"Repentigny","province":"QC","country":"Canada","postal_code":"J5Y 0B4","latitude":"45.788097","longitude":"-73.410001","isOnline":true,"public_phone_number":"","mass_transit_info":""},{"name":"Centre Communautaire Roussin","gw_id":"6872510E756D","deployment_status":"DEPLOYED","civic_number":"12125","street_name":"rue Notre-Dame Est","city":"Montr\u00e9al","province":"QC","country":"CANADA","postal_code":"H1B 2Y9","latitude":"45.641233","longitude":"-73.490074","isOnline":true,"public_phone_number":"(514) 645 4519","mass_transit_info":""},{"name":"Auberge Alternative du Vieux-Montr\u00e9al","gw_id":"002722F32D13","deployment_status":"DEPLOYED","civic_number":"358","street_name":"rue St-Pierre","city":"Montr\u00e9al","province":"Qu\u00e9bec","country":"Canada","postal_code":"H2Y 2M1","latitude":"45.501008","longitude":"-73.556042","isOnline":true,"public_phone_number":"(514) 282-8069","mass_transit_info":"Metro Square-Victoria , marcher vers le sud ouest"},{"name":"Th\u00e9\u00e2tre ESPACE GO","gw_id":"002722F32E77","deployment_status":"DEPLOYED","civic_number":"4890","street_name":"Saint Laurent","city":"Montr\u00e9al","province":"Quebec","country":"Canada","postal_code":"H2T 1R5","latitude":"45.522068","longitude":"-73.590921","isOnline":true,"public_phone_number":"514 845 4890","mass_transit_info":"Saint-Laurent et Saint-Joseph"},{"name":"Bar-B-Barn - Sources","gw_id":"0227222BBC70","deployment_status":"DEPLOYED","civic_number":"3300","street_name":"Boul. des Sources","city":"Dollard-des-Ormeaux","province":"QC","country":"CANADA","postal_code":"H9B 1Z7","latitude":"45.483050","longitude":"-73.796029","isOnline":true,"public_phone_number":"(514) 683-0225","mass_transit_info":"Coin de Boul. Brunswick et Boul. des Sources (pres du Autoroute 40)"},{"name":"Technopole Angus - Rachel et Molson","gw_id":"02272223C9F2","deployment_status":"DEPLOYED","civic_number":"2901","street_name":"rachel","city":"Montrreal","province":"QC","country":"Canada","postal_code":"H1W 4A4","latitude":"45.541646","longitude":"-73.561970","isOnline":true,"public_phone_number":"","mass_transit_info":"Bus 97,27,94"},{"name":"March\u00e9 Jean-Talon Axe Nord Sud","gw_id":"0227222BBC44","deployment_status":"DEPLOYED","civic_number":"7070","street_name":"rue Henri-Julien","city":"Montr\u00e9al","province":"QC","country":"CANADA","postal_code":"H2S 3S3","latitude":"45.536530","longitude":"-73.615052","isOnline":true,"public_phone_number":"(514) 937-7620","mass_transit_info":"M\u00e9tro Jean-Talon"},{"name":"Cin\u00e9math\u00e8que Qu\u00e9b\u00e9coise - cafe","gw_id":"0016B6DA9AD7","deployment_status":"DEPLOYED","civic_number":"335","street_name":"Boul. de Maisonneuve Est","city":"Montr\u00e9al","province":"Qu\u00e9bec","country":"Canada","postal_code":"H2X 1K1","latitude":"45.513988","longitude":"-73.562438","isOnline":true,"public_phone_number":"(514) 842-9763","mass_transit_info":""},{"name":"Arrondissement Montreal Nord - Arena Garon","gw_id":"000DB9332E3D","deployment_status":"DEPLOYED","civic_number":"11212","street_name":"rue Garon","city":"Montreal-nord","province":"QC","country":"CANADA","postal_code":"H1H 1M6","latitude":"45.594866","longitude":"-73.637851","isOnline":true,"public_phone_number":"514-328-4160","mass_transit_info":""},{"name":"Arrondissement Ville-Marie - Parc Campbell","gw_id":"000DB93DDE4D","deployment_status":"DEPLOYED","civic_number":"1225","street_name":"Alexandre-de-S\u00e8ve","city":"Montreal","province":"QC","country":"CANADA","postal_code":"H2L2T7","latitude":"45.501689","longitude":"-73.567256","isOnline":true,"public_phone_number":"","mass_transit_info":""},{"name":"Bistro Cornichon","gw_id":"002722B5F06D","deployment_status":"DEPLOYED","civic_number":"1291","street_name":"Mont royal Est","city":"Montreal","province":"QC","country":"Canada","postal_code":"H2J 1Y4","latitude":"45.529815","longitude":"-73.577730","isOnline":true,"public_phone_number":"438 381 8167","mass_transit_info":"bus 97"},{"name":"Hawgs Deli and Bar - Outdoor","gw_id":"DC9FDB58AEAF","deployment_status":"DEPLOYED","civic_number":"6795","street_name":"Jarry Est","city":"Montreal","province":"QC","country":"Canada","postal_code":"H1P 1W6","latitude":"45.597694","longitude":"-73.579055","isOnline":true,"public_phone_number":"(514) 327-3344","mass_transit_info":""},{"name":"Arrondissement Montreal Nord - Maison Culturelle et Communautaire - Arena - Parc Henri Bourrassa","gw_id":"000DB932F2C1","deployment_status":"DEPLOYED","civic_number":"12004","street_name":"Boulevard Rolland","city":"Montreal","province":"QC","country":"CANADA","postal_code":"H1G 3W1","latitude":"45.616230","longitude":"-73.621427","isOnline":true,"public_phone_number":"514 328 4000","mass_transit_info":"Bus 49, 69, 469"},{"name":"Belv\u00e9d\u00e8re du Mont Royal","gw_id":"DC9FDB58ADD2","deployment_status":"DEPLOYED","civic_number":"1196","street_name":"Camillien-Houde","city":"Montr\u00e9al","province":"Qu\u00e9bec","country":"Canada","postal_code":"H3H 1A1","latitude":"45.503931","longitude":"-73.587463","isOnline":true,"public_phone_number":"(514) 872-3911","mass_transit_info":""},{"name":"Ressources Jeunesse St-Laurent","gw_id":"000F66E26068","deployment_status":"DEPLOYED","civic_number":"1550","street_name":"rue Elizabeth","city":"Saint-Laurent","province":"QC","country":"CANADA","postal_code":"H4L 5N7","latitude":"45.521691","longitude":"-73.680614","isOnline":true,"public_phone_number":"(514) 748-0202","mass_transit_info":"Metro Cote-Vertu, autobus 121 vers l'est, debarque a Dutrisac, marcher nord-est"},{"name":"Chateau Ramezay - 2e \u00e9tage et Jardins","gw_id":"00272222C65E","deployment_status":"DEPLOYED","civic_number":"280","street_name":"Notre Dame Est","city":"MONTREAL","province":"QC","country":"Canada","postal_code":"H2Y 1C5","latitude":"45.508756","longitude":"-73.553299","isOnline":true,"public_phone_number":"514 861-3708","mass_transit_info":"Metro Champ-de-Mars"},{"name":"Repentigny - Parc Larochelle","gw_id":"000DB93030C5","deployment_status":"DEPLOYED","civic_number":"366","street_name":"rue marquis","city":"repentigny","province":"Qu\u00e9bec","country":"CANADA","postal_code":"J6A 6B7","latitude":"45.742368","longitude":"-73.468600","isOnline":true,"public_phone_number":"","mass_transit_info":""},{"name":"Marie Pain Boulangerie - Montreal","gw_id":"02156D4DAC27","deployment_status":"DEPLOYED","civic_number":"8890","street_name":"Sherbrooke Est","city":"Montr\u00e9al","province":"QC","country":"Canada","postal_code":"H1L 1C9","latitude":"45.606476","longitude":"-73.528952","isOnline":true,"public_phone_number":"514 353 8204","mass_transit_info":"Sur Sherbrooke, Coin Pierre-Bernard\r\nM\u00e9tro Honor\u00e9-Beaugrand puis 5 minutes vers l'Est\r\nBus 186\r\nAutres bus a proximit\u00e9 :3, 10, 141, 185, 187"},{"name":"Rivi\u00e8re des Prairies - Pointe aux Trembles - Parc Samuel Morse","gw_id":"6A72512FFFD7","deployment_status":"DEPLOYED","civic_number":"12100","street_name":"Francois Larocque","city":"Montr\u00e9al","province":"Qu\u00e9bec","country":"Canada","postal_code":"H1E4R3","latitude":"45.639042","longitude":"-73.584677","isOnline":true,"public_phone_number":"","mass_transit_info":"bus sur Maurice Duplessis"},{"name":"Repentigny - Parc Jean-Claude-Crevier","gw_id":"000DB92F59D5","deployment_status":"DEPLOYED","civic_number":"225","street_name":"Boulevard J.-A.-Par\u00e9","city":"Repentigny","province":"QC","country":"CANADA","postal_code":"J5Z 4M6","latitude":"45.762683","longitude":"-73.476449","isOnline":true,"public_phone_number":"","mass_transit_info":""},{"name":"Menchie's Laval","gw_id":"24A43C4D2FF5","deployment_status":"DEPLOYED","civic_number":"125","street_name":"Promenade du centropolis","city":"Laval","province":"Quebec","country":"Canada","postal_code":"H7T 0B3","latitude":"45.561711","longitude":"-73.746183","isOnline":true,"public_phone_number":"450 688 7353","mass_transit_info":"Metro Montmorency puis bus 70. Descendre vers le cosmod\u00f4me \/ cinema colossus. Menchie's est situ\u00e9 dans le complexe centropolis, sur la promenade en face du cinema colossus."},{"name":"Centre Communautaire du plateau - Club photo le 3e oeil","gw_id":"00272242E319","deployment_status":"DEPLOYED","civic_number":"2275","street_name":"St Joseph est","city":"Montr\u00e9al","province":"QC","country":"Canada","postal_code":"H2H 1G4","latitude":"45.539814","longitude":"-73.576131","isOnline":true,"public_phone_number":"(514) 872-6830 ","mass_transit_info":"M\u00e9tro Laurier + autobus 27 "},{"name":"Verre Bouteille","gw_id":"0027224AFE1B","deployment_status":"DEPLOYED","civic_number":"2112","street_name":"Avenue Mont-Royal Est","city":"Montr\u00e9al","province":"QC","country":"CANADA","postal_code":"H2H 1J8","latitude":"45.535947","longitude":"-73.571870","isOnline":true,"public_phone_number":"(514) 521-9409","mass_transit_info":"Autobus 97 Mont Royal\/de Lorimier"},{"name":"Else's","gw_id":"DC9FDBF32B68","deployment_status":"DEPLOYED","civic_number":"156","street_name":"rue Roy E.","city":"Montreal","province":"QC","country":"CANADA","postal_code":"H2W 1M2","latitude":"45.516900","longitude":"-73.574800","isOnline":true,"public_phone_number":"(514) 286-6689","mass_transit_info":"Metro Sherbrooke or Bus 55 St Laurent\r\n"},{"name":"Hotel Pierre du Calvet","gw_id":"6A72512FFEEE","deployment_status":"DEPLOYED","civic_number":"405","street_name":"Bonsecours","city":"Montr\u00e9al","province":"Qu\u00e9bec","country":"Canada","postal_code":"H2Y 3C3","latitude":"45.510015","longitude":"-73.551614","isOnline":true,"public_phone_number":"(514) 282-1725","mass_transit_info":"metro Places d'Armes ou bus : 55, 14"},{"name":"Village, Piazzetta Antenne Exterieure","gw_id":"DC9FDB02FEEB","deployment_status":"DEPLOYED","civic_number":"1101","street_name":"Sainte-Cath\u00e9rine Est","city":"Montr\u00e9al","province":"Qu\u00e9bec","country":"Canada","postal_code":"H2L2G6","latitude":"45.517531","longitude":"-73.557122","isOnline":false,"public_phone_number":"","mass_transit_info":""},{"name":"Studio Bizz - Iberville","gw_id":"00259C4AA820","deployment_status":"DEPLOYED","civic_number":"2488","street_name":"avenue du Mont-Royal Est","city":"Montr\u00e9al","province":"Qu\u00e9bec","country":"Canada","postal_code":"H2H 1L3","latitude":"45.538986","longitude":"-73.568803","isOnline":true,"public_phone_number":"(514) 526-2466","mass_transit_info":"Autobus 97 ou 94"},{"name":"Katacombes - Terrasse","gw_id":"0227222BC2E6","deployment_status":"DEPLOYED","civic_number":"1635","street_name":"Saint-Laurent","city":"Montreal","province":"QC","country":"canada","postal_code":"H2X2S9","latitude":"45.511254","longitude":"-73.566573","isOnline":true,"public_phone_number":"(514) 861-6151","mass_transit_info":"Metro Saint Laurent, bus 55, 24"},{"name":"H\u00f4tel Mont Royal","gw_id":"022722EDBC9E","deployment_status":"DEPLOYED","civic_number":"438","street_name":"Mont-Royal Est","city":"montreal","province":"qc","country":"canada","postal_code":"H2J 1W1","latitude":"45.524440","longitude":"-73.582353","isOnline":true,"public_phone_number":"514-661 0873","mass_transit_info":"metro Mont-Royal"},{"name":"March\u00e9 Jean Talon - Axe Est-Ouest","gw_id":"0227222BBC41","deployment_status":"DEPLOYED","civic_number":"7070","street_name":"rue Henri-Julien","city":"Montr\u00e9al","province":"QC","country":"Canada","postal_code":"H2S 3S3","latitude":"45.536237","longitude":"-73.614795","isOnline":true,"public_phone_number":"(514) 937-7620","mass_transit_info":"M\u00e9tro Jean-Talon\r\n"},{"name":"Centre Segal des arts de la sc\u00e8ne","gw_id":"002722F32D0A","deployment_status":"DEPLOYED","civic_number":"5170","street_name":"chemin de la C\u00f4te-Ste-Catherine","city":"montreal","province":"QC","country":"Canada","postal_code":"H3W 1M7","latitude":"45.488635","longitude":"-73.635703","isOnline":true,"public_phone_number":"(514) 739-2301","mass_transit_info":"metro Snowdon"},{"name":"Binerie Mont-Royal","gw_id":"02272229B6F0","deployment_status":"DEPLOYED","civic_number":"367","street_name":"avenue Mont-Royal Est","city":"Montr\u00e9al","province":"QC","country":"Canada","postal_code":"H2T 1R1","latitude":"45.523739","longitude":"-73.583250","isOnline":true,"public_phone_number":"514 285 9078","mass_transit_info":"en face du metro Mont-royal"},{"name":"Le Placard","gw_id":"0227222BBC87","deployment_status":"DEPLOYED","civic_number":"2129","street_name":"avenue Mont-Royal Est","city":"Montreal","province":"QC","country":"Canada","postal_code":"H2H 1J9","latitude":"45.535569","longitude":"-73.572200","isOnline":true,"public_phone_number":"(514) 590-0733","mass_transit_info":""},{"name":"La Petite Cloche","gw_id":"DC9FDB551601","deployment_status":"DEPLOYED","civic_number":"1001, Niveau A","street_name":"rue University","city":"Montreal","province":"QC","country":"CANADA","postal_code":"H3B 4L4","latitude":"45.500647","longitude":"-73.564582","isOnline":true,"public_phone_number":"(514) 875-2040","mass_transit_info":"Metro Place Victoria, Edifice 700 de la Gauchetiere O"},{"name":"La Bastringue","gw_id":"DE9FDB352931","deployment_status":"DEPLOYED","civic_number":"1335","street_name":"Beaubien est","city":"Montr\u00e9al","province":"Qu\u00e9bec","country":"Canada","postal_code":"H2G 1K7","latitude":"45.540497","longitude":"-73.599076","isOnline":true,"public_phone_number":"(514) 903 9222","mass_transit_info":"M\u00e9tro Beaubien + autobus 18"},{"name":"Bistro Jono Bar","gw_id":"DC9FDB3E7A23","deployment_status":"DEPLOYED","civic_number":"2201","street_name":"Mont-Royal est","city":"Montr\u00e9al","province":"QC","country":"Canada","postal_code":"H2H 1K5","latitude":"45.536453","longitude":"-73.571383","isOnline":true,"public_phone_number":"514 523 1841","mass_transit_info":"bus 97"},{"name":"Juliette et Chocolat - March\u00e9 Jean Talon","gw_id":"24A43C9C52F3","deployment_status":"DEPLOYED","civic_number":"195","street_name":"Place du march\u00e9 du nord","city":"Montreal","province":"QC","country":"CANADA","postal_code":"","latitude":"45.536034","longitude":"-73.616172","isOnline":true,"public_phone_number":"","mass_transit_info":"M\u00e9tro Jean Talon"},{"name":"VIllage, Stock Bar","gw_id":"687251088A79","deployment_status":"DEPLOYED","civic_number":"1171","street_name":"Saint-Catherine Est","city":"Montr\u00e9al","province":"QC","country":"Canada","postal_code":"H2L 2GA","latitude":"45.518267","longitude":"-73.556530","isOnline":true,"public_phone_number":"","mass_transit_info":"metro Beaudry"},{"name":"Village, Caf\u00e9 L'Escalier","gw_id":"24A43C9C4C3F","deployment_status":"DEPLOYED","civic_number":"552","street_name":"Ste-Catherine est","city":"Montr\u00e9al","province":"Qc","country":"Canada","postal_code":"H2L 2E1","latitude":"45.514963","longitude":"-73.559149","isOnline":true,"public_phone_number":"514-670-5812","mass_transit_info":"M\u00e9tro Berri"},{"name":"Groupe Harmonie - HLM DuRocher","gw_id":"24A43C4D3012","deployment_status":"DEPLOYED","civic_number":"425","street_name":"Sherbrooke ouest","city":"Montreal","province":"QC","country":"Canada","postal_code":"H2L 2C5","latitude":"45.507468","longitude":"-73.572093","isOnline":true,"public_phone_number":"","mass_transit_info":""},{"name":"Pizzeria Bros","gw_id":"68725140CD00","deployment_status":"DEPLOYED","civic_number":"13","street_name":"Notre Dame Ouest","city":"Montr\u00e9al","province":"QC","country":"Canada","postal_code":"H2Y 1S5","latitude":"45.551440","longitude":"-73.637190","isOnline":false,"public_phone_number":"","mass_transit_info":"M\u00e9tro Place-d'armes"},{"name":"Rivi\u00e8re des Prairies - Pointe aux Trembles - Parc Armand Bombardier","gw_id":"000DB9406A91","deployment_status":"DEPLOYED","civic_number":"12435","street_name":"Boulevard Armand Bombardier","city":"Montreal","province":"QC","country":"CANADA","postal_code":"H1E 1W8","latitude":"45.638989","longitude":"-73.597076","isOnline":true,"public_phone_number":"","mass_transit_info":"Bus : 44,48,372,449,353,432"},{"name":"Arrondissement Ahuntsic - Parc et Arena Ahuntsic","gw_id":"000DB9407C05","deployment_status":"DEPLOYED","civic_number":"10560","street_name":"Saint Hubert","city":"Montreal","province":"QC","country":"Canada","postal_code":"H2C 2H7","latitude":"45.556471","longitude":"-73.660767","isOnline":true,"public_phone_number":"","mass_transit_info":"Metro Henri Bourassa"},{"name":"Terrebonne - Bibliotheque Andre Guerard","gw_id":"000DB93DDE61","deployment_status":"DEPLOYED","civic_number":"3425","street_name":"rue Camus","city":"Terrebonne","province":"Qu\u00e9bec","country":"Canada","postal_code":"J6Y 1L2","latitude":"45.698175","longitude":"-73.796795","isOnline":true,"public_phone_number":"","mass_transit_info":""},{"name":"Bar Zo\u00e9 Karaoke & Cocktails","gw_id":"6872512CAD70","deployment_status":"DEPLOYED","civic_number":"3296","street_name":"Jean-Talon E.","city":"Montr\u00e9al","province":"Qu\u00e9bec","country":"Canada","postal_code":"H2A1W3","latitude":"45.559448","longitude":"-73.597632","isOnline":true,"public_phone_number":"514-374-0666","mass_transit_info":""},{"name":"Caf\u00e9 Kahwa","gw_id":"00272218E28B","deployment_status":"DEPLOYED","civic_number":"263","street_name":"avenue Mont-Royal est","city":"Montreal","province":"QC","country":"Canada","postal_code":"H2T 1P6","latitude":"45.522622","longitude":"-73.584046","isOnline":true,"public_phone_number":"(514) 564-2111","mass_transit_info":""},{"name":"HELM Brasseur Gourmand","gw_id":"24A43C9030CD","deployment_status":"DEPLOYED","civic_number":"273","street_name":"rue Bernard Ouest","city":"Montr\u00e9al","province":"QC","country":"CANADA","postal_code":"H2V 1T5","latitude":"45.524092","longitude":"-73.605303","isOnline":true,"public_phone_number":"(514) 276-0473","mass_transit_info":""},{"name":"Maison des P\u00e2tes Fraiches","gw_id":"DC9FDB3E79C6","deployment_status":"DEPLOYED","civic_number":"865","street_name":"Rachel Est","city":"Montr\u00e9al","province":"Qu\u00e9bec","country":"Canada","postal_code":"H2J 2H9","latitude":"45.522798","longitude":"-73.583942","isOnline":false,"public_phone_number":"(514) 527-5487","mass_transit_info":"M\u00e9tro Mont-Royal ou M\u00e9tro Sherbrooke"},{"name":"Boulangerie et Patisserie Salerno","gw_id":"6A72511902DE","deployment_status":"DEPLOYED","civic_number":"2411","street_name":"Charland","city":"Montr\u00e9al","province":"Qu\u00e9bec","country":"Canada","postal_code":"H1Z 1B9","latitude":"45.570965","longitude":"-73.639631","isOnline":true,"public_phone_number":"514-384-9142","mass_transit_info":"M\u00e9tro Sauv\u00e9"},{"name":"Cin\u00e9math\u00e8que Qu\u00e9b\u00e9coise - M\u00e9diath\u00e8que","gw_id":"00259C47C04F","deployment_status":"DEPLOYED","civic_number":"335","street_name":"boul. De Maisonneuve Est","city":"Montr\u00e9al","province":"Qu\u00e9bec","country":"Canada","postal_code":"H2X 1K1","latitude":"45.513847","longitude":"-73.562736","isOnline":true,"public_phone_number":"514-842-9763","mass_transit_info":"M\u00e9tro Berri UQAM"},{"name":"Marie Pain Boulangerie - Pointe Aux Trembles","gw_id":"DC9FDB3E7513","deployment_status":"DEPLOYED","civic_number":"13076","street_name":"Sherbrooke est","city":"Pointe-aux-Trembles","province":"Qu\u00e9bec","country":"Canada","postal_code":"H1A 3W2","latitude":"45.656655","longitude":"-73.509339","isOnline":true,"public_phone_number":"514-644-8868","mass_transit_info":"Bus 86 , 186 , 362"},{"name":"Village, Piazzetta","gw_id":"DC9FDB58AF24","deployment_status":"DEPLOYED","civic_number":"1101","street_name":"Ste-Catherine Est","city":"Montr\u00e9al","province":"Qu\u00e9bec","country":"Canada","postal_code":"H2L2G6","latitude":"45.517479","longitude":"-73.557050","isOnline":true,"public_phone_number":"","mass_transit_info":""},{"name":"Ar\u00e9na Maurice Richard VIP","gw_id":"00156D80E061","deployment_status":"DEPLOYED","civic_number":"2800","street_name":"Viau","city":"Montr\u00e9al","province":"QC","country":"Canada","postal_code":"H1V3J3","latitude":"45.562290","longitude":"-73.547661","isOnline":true,"public_phone_number":"514-872-6666","mass_transit_info":"M\u00e9tro Viau"},{"name":"Juliette et Chocolat - Faubourg Boisbriand","gw_id":"00156D4AEFCE","deployment_status":"DEPLOYED","civic_number":"2860","street_name":"promenade Saint-Honor\u00e9","city":"Boisbriand","province":"QC","country":"Canada","postal_code":"J7H 1M9","latitude":"45.628233","longitude":"-73.848962","isOnline":true,"public_phone_number":"450-951-5951 ","mass_transit_info":""},{"name":"Centre \u00c9tienne-Desmarteaux caf\u00e9 SLAB","gw_id":"68725148E2F3","deployment_status":"DEPLOYED","civic_number":"3430","street_name":"Rue de Bellechasse","city":"Montr\u00e9al","province":"Qu\u00e9bec","country":"CANADA","postal_code":"H1X 3C8","latitude":"45.555876","longitude":"-73.580396","isOnline":true,"public_phone_number":"","mass_transit_info":"M\u00e9tro Rosemont descendre \u00e0 la 15e avenue, marcher vers le nord."},{"name":"Pub Pit Caribou","gw_id":"DC9FDB3E77A9","deployment_status":"DEPLOYED","civic_number":"951","street_name":"rue Rachel Est","city":"Montr\u00e9al","province":"QC","country":"CANADA","postal_code":"H2J 2J4","latitude":"45.525001","longitude":"-73.575399","isOnline":true,"public_phone_number":"","mass_transit_info":"metro Mont-Royal"},{"name":"Arrondissement Ahuntsic - Place Chabanel","gw_id":"000db93ebe85","deployment_status":"DEPLOYED","civic_number":"205","street_name":"chabanel ouest","city":"montreal","province":"Qu\u00e9bec","country":"Canada","postal_code":"","latitude":"45.540977","longitude":"-73.653697","isOnline":true,"public_phone_number":"","mass_transit_info":"Bus 19, 54, 55"},{"name":"Artneuf","gw_id":"0014BF20EBA6","deployment_status":"DEPLOYED","civic_number":"3819","street_name":"Calixa-Lavall\u00e9e","city":"Montr\u00e9al","province":"QC","country":"Canada","postal_code":"H2L 2A7","latitude":"45.527216","longitude":"-73.569517","isOnline":true,"public_phone_number":"514-872-3947","mass_transit_info":""},{"name":"Terrebonne - Parc Philippe Villeneuve","gw_id":"000DB93F7A1D","deployment_status":"DEPLOYED","civic_number":"6801","street_name":"Laurier","city":"Terrebonne","province":"Qu\u00e9bec","country":"Canada","postal_code":"J7M1H1","latitude":"45.549660","longitude":"-73.574115","isOnline":true,"public_phone_number":"","mass_transit_info":""},{"name":"Centre communautaire de loisir Cote des Neiges","gw_id":"0418D64F4BE1","deployment_status":"DEPLOYED","civic_number":"5347","street_name":"Cote des Neiges","city":"Montreal","province":"QC","country":"CANADA","postal_code":"H3T 1Y4","latitude":"45.496644","longitude":"-73.622986","isOnline":true,"public_phone_number":"(514) 733-1478","mass_transit_info":"Metro Cote des Neiges"},{"name":"Caf\u00e9 92\u00b0","gw_id":"00259C4AD496","deployment_status":"DEPLOYED","civic_number":"6703","street_name":"rue Sherbrooke Ouest","city":"Montreal","province":"QC","country":"CANADA","postal_code":"H4B 1P3","latitude":"45.467222","longitude":"-73.622213","isOnline":true,"public_phone_number":"(514) 750-4392","mass_transit_info":"M\u00e9tro Vend\u00f4me, Autobus 105"},{"name":"Oboro Lab","gw_id":"002369563010","deployment_status":"DEPLOYED","civic_number":"4001, Suite 301","street_name":"rue Berri","city":"Montreal","province":"QC","country":"CANADA","postal_code":"H2L 4H2","latitude":"45.521515","longitude":"-73.574040","isOnline":true,"public_phone_number":"(514) 844-3250","mass_transit_info":"M\u00e9tro Sherbrooke"},{"name":"Oboro","gw_id":"001A705A707C","deployment_status":"DEPLOYED","civic_number":"4001, suite 301","street_name":"rue Berri","city":"Montr\u00e9al","province":"QC","country":"CANADA","postal_code":"H2L 4H2","latitude":"45.521564","longitude":"-73.574501","isOnline":true,"public_phone_number":"(514) 844-3250","mass_transit_info":"M\u00e9tro Sherbrooke"},{"name":"infopresse","gw_id":"000DB9332F15","deployment_status":"DEPLOYED","civic_number":"4316","street_name":"Boulevard Saint-Laurent","city":"Montr\u00e9al","province":"QC","country":"Canada","postal_code":"H2W1Z3","latitude":"45.518930","longitude":"-73.583775","isOnline":true,"public_phone_number":"514 842 5873","mass_transit_info":"bus 55, 80, metro Mont-Royal"},{"name":"Espace pour la vie - Planetarium","gw_id":"022722EDBB94","deployment_status":"DEPLOYED","civic_number":"4777","street_name":"Pierre de coubertin","city":"Montreal","province":"QC","country":"Canada","postal_code":"H1V 1B3","latitude":"45.560641","longitude":"-73.550570","isOnline":true,"public_phone_number":"","mass_transit_info":"metro Viau ou Pie-IX"},{"name":"Wilfrid sur Laurier","gw_id":"001EE57AA89E","deployment_status":"DEPLOYED","civic_number":"222","street_name":"avenue Laurier Ouest","city":"Montr\u00e9al","province":"QC","country":"CANADA","postal_code":"H2T 2N8","latitude":"45.520691","longitude":"-73.594896","isOnline":true,"public_phone_number":"(514) 495-4961","mass_transit_info":"Autobus 80 du Parc"},{"name":"Marie Pain Boulangerie - Repentigny","gw_id":"68725140CD4D","deployment_status":"DEPLOYED","civic_number":"452","street_name":"Rue Notre-Dame","city":"Repentigny","province":"Qu\u00e9bec","country":"CANADA","postal_code":"J6A 2T4","latitude":"45.738912","longitude":"-73.446001","isOnline":true,"public_phone_number":"(450) 581-1020","mass_transit_info":""},{"name":"Juliette et Chocolat - Saint Denis","gw_id":"DC9FDB020248","deployment_status":"DEPLOYED","civic_number":"1615","street_name":"Saint Denis","city":"Montreal","province":"QC","country":"Canada","postal_code":"H2X 3K3","latitude":"45.516286","longitude":"-73.566191","isOnline":false,"public_phone_number":"514 287 3555","mass_transit_info":"Metro Berri-UQAM"},{"name":"Centre d'Histoire de Montr\u00e9al","gw_id":"26A43C414970","deployment_status":"DEPLOYED","civic_number":"335","street_name":"Place d'Youville","city":"Montr\u00e9al","province":"QC","country":"Canada","postal_code":"H2Y 3T1","latitude":"45.501012","longitude":"-73.555510","isOnline":true,"public_phone_number":"(514) 872-3207","mass_transit_info":""},{"name":"Caf\u00e9 Sesame","gw_id":"68725148E4C0","deployment_status":"DEPLOYED","civic_number":"8628","street_name":"Rue Hochelaga","city":"Montr\u00e9al","province":"Qu\u00e9bec","country":"Canada","postal_code":"H1L 2M4","latitude":"45.600497","longitude":"-73.520054","isOnline":true,"public_phone_number":"","mass_transit_info":""},{"name":"Terrebonne - Cit\u00e9 du Sport","gw_id":"000DB9418369","deployment_status":"DEPLOYED","civic_number":"2405","street_name":"boul. des entreprises","city":"Terrebonne","province":"Qu\u00e9bec","country":"Canada","postal_code":"J6X 4J9","latitude":"45.719741","longitude":"-73.709725","isOnline":true,"public_phone_number":"514-280-3580","mass_transit_info":""},{"name":"Centre de loisirs Monseigneur Pigeon","gw_id":"022722EDBB93","deployment_status":"DEPLOYED","civic_number":"5550","street_name":"rue Angers","city":"Montreal","province":"QC","country":"CANADA","postal_code":"H4E 4A5","latitude":"45.462799","longitude":"-73.584287","isOnline":true,"public_phone_number":"514 769 2741","mass_transit_info":"Bus 37,101,78"},{"name":"Station In Vivo - Parc Olympique","gw_id":"022722EDBCA2","deployment_status":"DEPLOYED","civic_number":"4545","street_name":"avenue pierre-de-coubertin","city":"Montreal","province":"QC","country":"Canada","postal_code":"","latitude":"45.556171","longitude":"-73.551205","isOnline":false,"public_phone_number":"(514) 903-1005","mass_transit_info":"metro Pie-IX"},{"name":"Titanic","gw_id":"001A705A7076","deployment_status":"DEPLOYED","civic_number":"445","street_name":"rue St-Pierre","city":"Montr\u00e9al","province":"QC","country":"CANADA","postal_code":"H2Y 2M8","latitude":"45.501903","longitude":"-73.557748","isOnline":true,"public_phone_number":"(514) 849-0894","mass_transit_info":"M\u00e9tro Square-Victoria"},{"name":"Terrebonne - Ile Des Moulins","gw_id":"000DB93DDE6D","deployment_status":"DEPLOYED","civic_number":"855","street_name":"Ile-des-Moulins","city":"Terrebonne","province":"Qu\u00e9bec","country":"Canada","postal_code":"J6W 4N7","latitude":"45.692805","longitude":"-73.638386","isOnline":true,"public_phone_number":"","mass_transit_info":""},{"name":"Studio Danse Montreal","gw_id":"02272221EEB8","deployment_status":"DEPLOYED","civic_number":"7240","street_name":"Rue Clark","city":"Montreal","province":"QC","country":"CANADA","postal_code":"H2R 2Y3","latitude":"45.534266","longitude":"-73.619857","isOnline":true,"public_phone_number":"(514) 223-3918","mass_transit_info":"Metro de Castelnau"},{"name":"H\u00e9ma-Qu\u00e9bec - Globules Versailles","gw_id":"002722B5F017","deployment_status":"DEPLOYED","civic_number":"7275","street_name":"Sherbrooke Est","city":"Montr\u00e9al","province":"QC","country":"Canada","postal_code":"H1N 1E9","latitude":"45.592600","longitude":"-73.541290","isOnline":true,"public_phone_number":"514 832-5000","mass_transit_info":"m\u00e9tro Radisson"},{"name":"Avenue du Mont-Royal \u2013 Place G\u00e9rald-Godin","gw_id":"000DB9407B81","deployment_status":"DEPLOYED","civic_number":"","street_name":"place g\u00e9rald godin","city":"Montr\u00e9al","province":"QC","country":"Canada","postal_code":"H2J 1W1","latitude":"45.524601","longitude":"-73.582039","isOnline":true,"public_phone_number":"514 522-3797","mass_transit_info":"Metro Mont Royal"},{"name":"Centre communautaire de loisir Lajeunesse - couloir 2e - Sud","gw_id":"0027222ABC86","deployment_status":"DEPLOYED","civic_number":"7378","street_name":"Lajeunesse","city":"Montreal","province":"QC","country":"Canada","postal_code":"H2R2H8","latitude":"45.540469","longitude":"-73.617522","isOnline":true,"public_phone_number":"514 278 2654","mass_transit_info":"Metro Jean Talon"},{"name":"Clip N Climb - Laval","gw_id":"24A43C70B312","deployment_status":"DEPLOYED","civic_number":"2929","street_name":"Boulevard Saint-Martin","city":"Montr\u00e9al","province":"QC","country":"Canada","postal_code":"H7T 2Y8","latitude":"45.560219","longitude":"-73.742014","isOnline":true,"public_phone_number":"450 934 9493","mass_transit_info":"Metro Montmorency puis bus 56 ou 61 ou 70"},{"name":"Bistro Part Ici","gw_id":"0014BF30C7B0","deployment_status":"DEPLOYED","civic_number":"4100","street_name":"Andr\u00e9-Laurendeau","city":"Montr\u00e9al","province":"Qu\u00e9bec","country":"Canada","postal_code":"H1Y1N6","latitude":"45.542700","longitude":"-73.562100","isOnline":true,"public_phone_number":"514-526-7278 ext 238","mass_transit_info":"Metro Joliette + Bus 67\r\nMetro Mont-Royal + Bus 97\r\nMetro Sherbrooke + Bus 24"},{"name":"Hotel de Ville de Montr\u00e9al ","gw_id":"000DB92A7589","deployment_status":"DEPLOYED","civic_number":"275","street_name":"Notre-Dame Est","city":"Montr\u00e9al","province":"Qu\u00e9bec","country":"Canada","postal_code":"H2Y 1C6","latitude":"45.508771","longitude":"-73.553799","isOnline":true,"public_phone_number":"514 872 2615","mass_transit_info":"M\u00e9tro Champ de Mars\r\nAutobus 129"},{"name":"Arret de Bus - Bistro Traiteur","gw_id":"02156D4DAC40","deployment_status":"DEPLOYED","civic_number":"4731","street_name":"Sainte Catherine Est","city":"Montreal","province":"Quebec","country":"Canada","postal_code":"H1V 2X3","latitude":"45.554894","longitude":"-73.531362","isOnline":true,"public_phone_number":"514 521 6111","mass_transit_info":"Metro Viau \r\nBus 34"},{"name":"Juliette et Chocolat - Centropolis de Laval","gw_id":"DC9FDB6E089D","deployment_status":"DEPLOYED","civic_number":"525","street_name":"promenade centropolis","city":"Laval","province":"Qu\u00e9bec","country":"Canada","postal_code":"H7T 0A3","latitude":"45.561456","longitude":"-73.746439","isOnline":true,"public_phone_number":"","mass_transit_info":"bus 70"},{"name":"Carrefour Jeunesse Emploi - NDG","gw_id":"68725108882B","deployment_status":"DEPLOYED","civic_number":"6370","street_name":"Sherbrooke ouest","city":"Montr\u00e9al","province":"Qu\u00e9bec","country":"Canada","postal_code":"H4B 1M9","latitude":"45.465140","longitude":"-73.626307","isOnline":true,"public_phone_number":"(514) 482 6665","mass_transit_info":"Bus 104, "},{"name":"Caf\u00e9 Cagibi","gw_id":"DC9FDB99E9F5","deployment_status":"DEPLOYED","civic_number":"5490","street_name":"boul St. Laurent","city":"Montreal","province":"Quebec","country":"Canada","postal_code":"H2T 1S1","latitude":"45.525858","longitude":"-73.598889","isOnline":true,"public_phone_number":"(514) 509-1199","mass_transit_info":"Bus 55"},{"name":"RESO - Regroupement \u00e9conomique et social du Sud-Ouest","gw_id":"DC9FDB02FEEC","deployment_status":"DEPLOYED","civic_number":"3181","street_name":"Saint-Jacques","city":"Montr\u00e9al","province":"QC","country":"Canada","postal_code":"H4C 1G7","latitude":"45.483311","longitude":"-73.579854","isOnline":true,"public_phone_number":"514.931.5737","mass_transit_info":"M\u00e9tro Lionel-Groulx"},{"name":"Brasserie Chez le P\u00e8re G\u00e9d\u00e9on","gw_id":"24A43C4D2FC4","deployment_status":"DEPLOYED","civic_number":"6615","street_name":"C\u00f4te de Liesse","city":"Saint-Laurent","province":"QC","country":"CANADA","postal_code":"H4T 1E5","latitude":"45.484776","longitude":"-73.693228","isOnline":true,"public_phone_number":"(514) 341-1011","mass_transit_info":""},{"name":"Lachine, Maison du brasseur","gw_id":"02156D4DAB2F","deployment_status":"DEPLOYED","civic_number":"2901","street_name":"St-Joseph","city":"Lachine","province":"quebec","country":"canada","postal_code":"H8S4B7","latitude":"45.433543","longitude":"-73.689919","isOnline":true,"public_phone_number":"514 634 3471 poste 302 ou 828","mass_transit_info":"bus 195"},{"name":"Coop La Maison Verte","gw_id":"24A43C4D3097","deployment_status":"DEPLOYED","civic_number":"5785","street_name":"rue Sherbrooke Ouest","city":"Montr\u00e9al","province":"Qu\u00e9bec","country":"CANADA","postal_code":"H4A 1X2","latitude":"45.470067","longitude":"-73.616917","isOnline":true,"public_phone_number":"(514) 489-8000","mass_transit_info":"M\u00e9tro Vend\u00f4me puis Bus 105"},{"name":"Piazzetta St-Denis","gw_id":"00156D4C4B54","deployment_status":"DEPLOYED","civic_number":"4097","street_name":"rue St-Denis","city":"Montreal","province":"QC","country":"CANADA","postal_code":"H2W 2M7","latitude":"45.521140","longitude":"-73.576239","isOnline":true,"public_phone_number":"(514) 847-0184","mass_transit_info":"Metro Sherbrooke"},{"name":"Lachine, centre Albert-Gari\u00e9py","gw_id":"0027221C73AE","deployment_status":"DEPLOYED","civic_number":"800","street_name":"Rue Sherbrooke","city":"Lachine","province":"QC","country":"Canada","postal_code":"H8S 1H1","latitude":"45.445167","longitude":"-73.670859","isOnline":true,"public_phone_number":"514 634-3471 poste 350","mass_transit_info":"bus 90"},{"name":"Boutique Point G","gw_id":"00259C4AD52C","deployment_status":"DEPLOYED","civic_number":"1266","street_name":"Avenue Mont-Royal","city":"Montreal","province":"QC","country":"CANADA","postal_code":"H2J 1Y3","latitude":"45.529426","longitude":"-73.577585","isOnline":true,"public_phone_number":"(514) 750-7515","mass_transit_info":"(coin Chambord)"},{"name":"Mc Kibbins - Vaudreuil","gw_id":"24A43C70B332","deployment_status":"DEPLOYED","civic_number":"3036","street_name":"Boulevard de la Gare","city":"Vaudreuil-Dorion","province":"Qu\u00e9bec","country":"Canada","postal_code":"J7V 0H1","latitude":"","longitude":"","isOnline":true,"public_phone_number":"(450) 424-3000","mass_transit_info":""},{"name":"Bar BBarn - rue Guy","gw_id":"24A43C4D7756","deployment_status":"DEPLOYED","civic_number":"1201","street_name":"Guy","city":"Montreal","province":"QC","country":"Canada","postal_code":"","latitude":"45.494390","longitude":"-73.576348","isOnline":true,"public_phone_number":"(514) 931-3811 ","mass_transit_info":"metro guy-concordia ou Lucien-L'allier"},{"name":"Club Aquatique Riviere des Prairies - CARP","gw_id":"0027222AC2BB","deployment_status":"DEPLOYED","civic_number":"12515","street_name":"Boul. Rodolphe-Forget","city":"Montr\u00e9al","province":"QC","country":"Canada","postal_code":"H1E 6P6","latitude":"45.651070","longitude":"-73.579115","isOnline":true,"public_phone_number":"514-494-9718","mass_transit_info":"Bus 48 ou 49"},{"name":"St-Sulpice (L'Original)","gw_id":"0013104C2875","deployment_status":"DEPLOYED","civic_number":"1680","street_name":"rue St-Denis","city":"Montr\u00e9al","province":"QC","country":"CANADA","postal_code":"H2X 3K6","latitude":"45.515159","longitude":"-73.564196","isOnline":true,"public_phone_number":"(514) 844-9458","mass_transit_info":"M\u00e9tro Berri, sortie St-Denis"},{"name":"McKibbin's Irish Pub - St-Laurent","gw_id":"0418D65F4FF8","deployment_status":"DEPLOYED","civic_number":"3515","street_name":"Boul. St-Laurent","city":"Montreal","province":"QC","country":"CANADA","postal_code":"H2X 2T6","latitude":"45.513429","longitude":"-73.571126","isOnline":true,"public_phone_number":"(514) 282-1580","mass_transit_info":""},{"name":"Rivi\u00e8re des Prairies - Pointe aux Trembles - place du Village-du-Vieux-Pointe-aux-Trembles","gw_id":"000DB91C171D","deployment_status":"DEPLOYED","civic_number":"4-48","street_name":"Boulevard Saint Jean Baptiste","city":"Montr\u00e9al","province":"Quebec","country":"Canada","postal_code":" H1B 3Z4","latitude":"45.639686","longitude":"-73.488381","isOnline":true,"public_phone_number":"","mass_transit_info":""},{"name":"L'Am\u00e8re \u00e0 Boire","gw_id":"001EE58603C7","deployment_status":"DEPLOYED","civic_number":"2049","street_name":"rue St-Denis","city":"Montr\u00e9al","province":"QC","country":"CANADA","postal_code":"H2X 3K8","latitude":"45.516632","longitude":"-73.566234","isOnline":true,"public_phone_number":"(514) 282-7448","mass_transit_info":"Metro Berri-UQAM et marchez vers le nord"},{"name":"Gite du Plateau Mont-Royal","gw_id":"001A705A707F","deployment_status":"DEPLOYED","civic_number":"185","street_name":"rue Sherbrooke Est","city":"Montr\u00e9al","province":"QC","country":"Canada","postal_code":"H2X 1C7","latitude":"45.514542","longitude":"-73.568471","isOnline":true,"public_phone_number":"(514) 284-1276","mass_transit_info":"Metro Sherbrooke"},{"name":"Rivi\u00e8re des Prairies - Pointe aux Trembles - Parc Saint Georges","gw_id":"000DB93EBE8D","deployment_status":"DEPLOYED","civic_number":"13050","street_name":"rue Prince-Albert","city":"Montreal","province":"Quebec","country":"Canada","postal_code":"H1A 3N4","latitude":"45.653955","longitude":"-73.492851","isOnline":true,"public_phone_number":"","mass_transit_info":""},{"name":"Rivi\u00e8re des Prairies - Pointe aux Trembles - Parc Daniel Johnson","gw_id":"000DB93DDE71","deployment_status":"DEPLOYED","civic_number":"1500","street_name":"Tricentenaire","city":"Montr\u00e9al","province":"QC","country":"CANADA","postal_code":"","latitude":"45.650104","longitude":"-73.499859","isOnline":true,"public_phone_number":"","mass_transit_info":""},{"name":"Centre communautaire de loisir Lajeunesse - couloir 3e - Sud","gw_id":"0027222ABD15","deployment_status":"DEPLOYED","civic_number":"7378","street_name":"Lajeunesse","city":"Montreal","province":"QC","country":"Canada","postal_code":"H2R2H8","latitude":"45.540469","longitude":"-73.617522","isOnline":true,"public_phone_number":"514 278 2654","mass_transit_info":"Metro Jean Talon"},{"name":"Centre communautaire de loisir Lajeunesse - couloir 2e - Nord","gw_id":"0027222ABDBB","deployment_status":"DEPLOYED","civic_number":"7378","street_name":"Lajeunesse","city":"Montreal","province":"QC","country":"Canada","postal_code":"H2R2H8","latitude":"45.540469","longitude":"-73.617522","isOnline":true,"public_phone_number":"514 278 2654","mass_transit_info":"Metro Jean-Talon"}]